{
  "advancesscoutedwound - 1696574398872 - 2YOR74g0zlNgXXMLVvBxnwRYUzv2": {
    "address": "شارع الحصن, الجيزة",
    "aislesCount": "1",
    "cashierCount": "2",
    "city": "giza",
    "crowdId": "2YOR74g0zlNgXXMLVvBxnwRYUzv2",
    "districtName": "الجيزة",
    "employeeCount": 2,
    "image": "https://firebasestorage.googleapis.com/v0/b/shoof-e2613.appspot.com/o/MissionPhotos%2Fshops_census%2Fshops_census-2YOR74g0zlNgXXMLVvBxnwRYUzv2-1696554425775%2Fstep3-1696554493528?alt=media&token=d73dc646-edad-4283-bd57-b88cf9eee335",
    "lat": 30.020526602577238,
    "lng": 31.21700529009104,
    "name": "الأرزاق بالله",
    "placeId": "advancesscoutedwound - 1696574398872 - 2YOR74g0zlNgXXMLVvBxnwRYUzv2",
    "status": "census_collected",
    "streetName": "شارع الحصن",
    "type": "kiosk",
    "w3w": "advances.scouted.wound"
  },
  "agreedwantedlauncher": {
    "address": "نادي امبابه الرياضي, المنيره",
    "city": "giza",
    "districtName": "المنيره",
    "image": "https://firebasestorage.googleapis.com/v0/b/shoof-e2613.appspot.com/o/MissionPhotos%2Fshops_census%2Fshops_census-VhuS8TSZxHRNSwUnv0w40IpZXP83-1626807653981%2Fstep1?alt=media&token=ab61b138-36c6-42a0-801a-c6968174a3e8",
    "lat": 30.08248082317294,
    "lng": 31.215495876967907,
    "name": "فور سيزون",
    "placeId": "agreedwantedlauncher",
    "status": "census_collected",
    "streetName": "نادي امبابه الرياضي",
    "type": "kiosk",
    "unavailableMissions": [
      "karate01"
    ],
    "w3w": "agreed.wanted.launcher"
  },
  "airlinerstidyspearing": {
    "address": "عمر طوسون , الكيت كات ",
    "city": "giza",
    "districtName": "الكيت كات ",
    "image": "https://firebasestorage.googleapis.com/v0/b/shoof-e2613.appspot.com/o/MissionPhotos%2Fshops_census%2Fshops_census-VhuS8TSZxHRNSwUnv0w40IpZXP83-1626620551935%2Fstep1?alt=media&token=85348a92-99a0-4eee-9588-a25e8c928166",
    "lat": 30.06667433002666,
    "lng": 31.21078222990036,
    "name": "قاصد كريم",
    "placeId": "airlinerstidyspearing",
    "status": "census_collected",
    "streetName": "عمر طوسون ",
    "type": "kiosk",
    "w3w": "airliners.tidy.spearing"
  },
  "alienatedclientdispose": {
    "address": "ممدوح سالم, الوحدة ",
    "city": "giza",
    "districtName": "الوحدة ",
    "image": "https://firebasestorage.googleapis.com/v0/b/shoof-e2613.appspot.com/o/MissionPhotos%2Fshops_census%2Fshops_census-VhuS8TSZxHRNSwUnv0w40IpZXP83-1626814751989%2Fstep1?alt=media&token=32da21f0-6c10-4393-afce-16533fe0d28b",
    "lat": 30.087799087005738,
    "lng": 31.212916262447834,
    "name": "العالمي",
    "placeId": "alienatedclientdispose",
    "status": "census_collected",
    "streetName": "ممدوح سالم",
    "type": "kiosk",
    "unavailableMissions": [
      "karate01"
    ],
    "w3w": "alienated.client.dispose"
  },
  "amendingshakeswiser - 1696147212758 - YSTi9eQpVXYmjSvShG5nq51u4Rh1": {
    "address": "الممشى السياحى محور جمال عبدالناصر, 6اكتوبر",
    "aislesCount": "0",
    "cashierCount": "1",
    "city": "giza",
    "crowdId": "YSTi9eQpVXYmjSvShG5nq51u4Rh1",
    "districtName": "6اكتوبر",
    "employeeCount": "2-5",
    "image": "https://firebasestorage.googleapis.com/v0/b/shoof-e2613.appspot.com/o/MissionPhotos%2Fshops_census%2Fshops_census-YSTi9eQpVXYmjSvShG5nq51u4Rh1-1696133922822%2Fstep3-1696134189331?alt=media&token=e3ac546b-e9a1-4394-bdc4-7b16716036c8",
    "lat": 29.988567821313875,
    "lng": 30.94110924750566,
    "name": "ready",
    "placeId": "amendingshakeswiser - 1696147212758 - YSTi9eQpVXYmjSvShG5nq51u4Rh1",
    "status": "census_collected",
    "streetName": "الممشى السياحى محور جمال عبدالناصر",
    "type": "kiosk",
    "w3w": "amending.shakes.wiser"
  },
  "anyonespilledinefficient": {
    "address": "المريوطيه , الهرم",
    "city": "giza",
    "districtName": "الهرم",
    "image": "https://firebasestorage.googleapis.com/v0/b/shoof-e2613.appspot.com/o/MissionPhotos%2Fshops_census%2Fshops_census-jRQTnx4bx6Zbu2OVW4gF4S1gZ592-1626541246951%2Fstep1?alt=media&token=3ff8dbd9-983b-4f2a-8f7e-22b4f6146228",
    "lat": 29.9913139,
    "lng": 31.149111199999993,
    "name": "فوري",
    "placeId": "anyonespilledinefficient",
    "status": "census_collected",
    "streetName": "المريوطيه ",
    "type": "kiosk",
    "w3w": "anyone.spilled.inefficient"
  },
  "apparatustidesskinny": {
    "address": "حسن امين, عمارات البترول ",
    "city": "giza",
    "districtName": "عمارات البترول ",
    "image": "https://firebasestorage.googleapis.com/v0/b/shoof-e2613.appspot.com/o/MissionPhotos%2Fshops_census%2Fshops_census-VhuS8TSZxHRNSwUnv0w40IpZXP83-1626619422680%2Fstep1?alt=media&token=af7e95b1-cbe6-49d9-9c5b-0447941b751f",
    "lat": 30.065355533275987,
    "lng": 31.206713989377022,
    "name": "الشيخ",
    "placeId": "apparatustidesskinny",
    "status": "census_collected",
    "streetName": "حسن امين",
    "type": "kiosk",
    "unavailableMissions": [
      "karate01",
      "chipsyfh01"
    ],
    "w3w": "apparatus.tides.skinny"
  },
  "archhecklerdecoder": {
    "address": "المريوطيه , الهرم",
    "city": "giza",
    "districtName": "الهرم",
    "image": "https://firebasestorage.googleapis.com/v0/b/shoof-e2613.appspot.com/o/MissionPhotos%2Fshops_census%2Fshops_census-jRQTnx4bx6Zbu2OVW4gF4S1gZ592-1626541032646%2Fstep1?alt=media&token=3f8a8a33-1b07-4535-abeb-995f412ff06b",
    "lat": 29.9916093,
    "lng": 31.148920900000007,
    "name": "مزازيك",
    "placeId": "archhecklerdecoder",
    "status": "census_collected",
    "streetName": "المريوطيه ",
    "type": "kiosk",
    "w3w": "arch.heckler.decoder"
  },
  "arisesparrowsallies": {
    "address": "الهرم مريوطيه جنب بنزينة totall, الهرم مريوطيه ",
    "city": "giza",
    "districtName": "الهرم مريوطيه ",
    "image": "https://firebasestorage.googleapis.com/v0/b/shoof-e2613.appspot.com/o/MissionPhotos%2Fshops_census%2Fshops_census-blTlHy3wM1hJG4LeXO7xd9pr9Ao1-1626380270748%2Fstep1?alt=media&token=b6d919c5-db2d-4c0e-b43a-4c76569de7f0",
    "lat": 29.991497243371192,
    "lng": 31.153162010014057,
    "name": "كشك ",
    "placeId": "arisesparrowsallies",
    "status": "census_collected",
    "streetName": "الهرم مريوطيه جنب بنزينة totall",
    "type": "kiosk",
    "w3w": "arise.sparrows.allies"
  },
  "artichokeforgivinglistings - 1683050377051 - fuSIEVLFj4gaOXksT9BYbddnnFn1": {
    "address": "الغيث, العجوزة",
    "aislesCount": "1",
    "cashierCount": "1",
    "city": "giza",
    "crowdId": "fuSIEVLFj4gaOXksT9BYbddnnFn1",
    "districtName": "العجوزة",
    "employeeCount": 2,
    "image": "https://firebasestorage.googleapis.com/v0/b/shoof-e2613.appspot.com/o/MissionPhotos%2Fshops_census%2Fshops_census-fuSIEVLFj4gaOXksT9BYbddnnFn1-1683048137873%2Fstep3-1683048516569?alt=media&token=97d3c492-8b92-4f7e-b69c-be00f677020a",
    "lat": 30.059547975891785,
    "lng": 31.214011944830418,
    "name": "Marina 4",
    "placeId": "artichokeforgivinglistings - 1683050377051 - fuSIEVLFj4gaOXksT9BYbddnnFn1",
    "status": "census_collected",
    "streetName": "الغيث",
    "type": "kiosk",
    "unavailableMissions": [
      "coca-price-monitor-kiosks"
    ],
    "w3w": "artichoke.forgiving.listings"
  },
  "atomicgoldendusty": {
    "address": "مراد, الكيت كات ",
    "city": "giza",
    "districtName": "الكيت كات ",
    "image": "https://firebasestorage.googleapis.com/v0/b/shoof-e2613.appspot.com/o/MissionPhotos%2Fshops_census%2Fshops_census-VhuS8TSZxHRNSwUnv0w40IpZXP83-1626611424597%2Fstep1?alt=media&token=88913c81-adc2-4fc1-8854-b5d1b190adfa",
    "lat": 30.067871242558937,
    "lng": 31.21380239725113,
    "name": "قاصد كريم",
    "placeId": "atomicgoldendusty",
    "status": "census_collected",
    "streetName": "مراد",
    "type": "kiosk",
    "unavailableMissions": [
      "karate01",
      "coca-price-monitor-01"
    ],
    "w3w": "atomic.golden.dusty"
  },
  "badlybuddingrigs": {
    "address": "سعيد مطر _من مراد , الكيت كات ",
    "city": "giza",
    "districtName": "الكيت كات ",
    "image": "https://firebasestorage.googleapis.com/v0/b/shoof-e2613.appspot.com/o/MissionPhotos%2Fshops_census%2Fshops_census-VhuS8TSZxHRNSwUnv0w40IpZXP83-1626704521871%2Fstep1?alt=media&token=ca325296-4f5a-45a4-8efd-2dfd90130b4a",
    "lat": 30.06713858872728,
    "lng": 31.213464438915253,
    "name": "كشك ابو خالد",
    "placeId": "badlybuddingrigs",
    "status": "census_collected",
    "streetName": "سعيد مطر _من مراد ",
    "type": "kiosk",
    "unavailableMissions": [
      "karate01",
      "coca-price-monitor-01"
    ],
    "w3w": "badly.budding.rigs"
  },
  "banquetsfoldersshielding": {
    "address": "الفريق عبد المنعم رياض , العجوزة ",
    "city": "giza",
    "districtName": "العجوزة ",
    "image": "https://firebasestorage.googleapis.com/v0/b/shoof-e2613.appspot.com/o/MissionPhotos%2Fshops_census%2Fshops_census-VhuS8TSZxHRNSwUnv0w40IpZXP83-1626710611163%2Fstep1?alt=media&token=ee7b7544-ac36-4e98-b297-0515fc1b5704",
    "lat": 30.055014339042543,
    "lng": 31.21006339788437,
    "name": "pepsi سالم",
    "placeId": "banquetsfoldersshielding",
    "status": "census_collected",
    "streetName": "الفريق عبد المنعم رياض ",
    "type": "kiosk",
    "w3w": "banquets.folders.shielding"
  },
  "beakslaunchrecapture - 1683246619659 - 0WzW3BsgbSaKqsiPIMSrhyhKmC82": {
    "address": "20 حسن صبري , الزمالك",
    "aislesCount": "0",
    "cashierCount": "2",
    "city": "giza",
    "crowdId": "0WzW3BsgbSaKqsiPIMSrhyhKmC82",
    "districtName": "الزمالك",
    "employeeCount": 2,
    "image": "https://firebasestorage.googleapis.com/v0/b/shoof-e2613.appspot.com/o/MissionPhotos%2Fshops_census%2Fshops_census-0WzW3BsgbSaKqsiPIMSrhyhKmC82-1683240859057%2Fstep3-1683240926897?alt=media&token=229e1d99-010d-4e19-8cff-0ab05757a39f",
    "lat": 30.059453085920687,
    "lng": 31.221651546657085,
    "name": "كشك حسن صبري",
    "placeId": "beakslaunchrecapture - 1683246619659 - 0WzW3BsgbSaKqsiPIMSrhyhKmC82",
    "status": "census_collected",
    "streetName": "20 حسن صبري ",
    "type": "kiosk",
    "unavailableMissions": [
      "coca-price-monitor-kiosks"
    ],
    "w3w": "beaks.launch.recapture"
  },
  "beamsrevertedtweezers": {
    "address": "الهدي النبوي , الكيت كات ",
    "city": "giza",
    "districtName": "الكيت كات ",
    "image": "https://firebasestorage.googleapis.com/v0/b/shoof-e2613.appspot.com/o/MissionPhotos%2Fshops_census%2Fshops_census-VhuS8TSZxHRNSwUnv0w40IpZXP83-1626612860106%2Fstep1?alt=media&token=9560b531-0ad0-4080-b2fb-a821bc6de1e9",
    "lat": 30.06940239901495,
    "lng": 31.20752166956663,
    "name": "مالك ",
    "placeId": "beamsrevertedtweezers",
    "status": "census_collected",
    "streetName": "الهدي النبوي ",
    "type": "kiosk",
    "unavailableMissions": [
      "karate01",
      "coca-price-monitor-01"
    ],
    "w3w": "beams.reverted.tweezers"
  },
  "bedroomadhesivematter": {
    "address": "عمر طوسون , الكيت كات ",
    "city": "giza",
    "districtName": "الكيت كات ",
    "image": "https://firebasestorage.googleapis.com/v0/b/shoof-e2613.appspot.com/o/MissionPhotos%2Fshops_census%2Fshops_census-VhuS8TSZxHRNSwUnv0w40IpZXP83-1626620483328%2Fstep1?alt=media&token=0ce4be6f-f883-4ccf-bc10-8d2ffca5d490",
    "lat": 30.066301180517435,
    "lng": 31.210389956831932,
    "name": "الامل في الله",
    "placeId": "bedroomadhesivematter",
    "status": "census_collected",
    "streetName": "عمر طوسون ",
    "type": "kiosk",
    "unavailableMissions": [
      "karate01",
      "chipsyfh01",
      "coca-price-monitor-01"
    ],
    "w3w": "bedroom.adhesive.matter"
  },
  "betrayingunsignedconstrain - 1696349904931 - emk8N1sXapNil2mjHVOylF0D6c12": {
    "address": "طريق بني سويف الجيزه , البدرشين",
    "aislesCount": "0",
    "cashierCount": "1",
    "city": "giza",
    "crowdId": "emk8N1sXapNil2mjHVOylF0D6c12",
    "districtName": "البدرشين",
    "employeeCount": "1",
    "image": "https://firebasestorage.googleapis.com/v0/b/shoof-e2613.appspot.com/o/MissionPhotos%2Fshops_census%2Fshops_census-emk8N1sXapNil2mjHVOylF0D6c12-1696349230590%2Fstep3-1696349285895?alt=media&token=0f666e9a-6824-4740-b4fa-99c17417221f",
    "lat": 29.84853157431433,
    "lng": 31.28285050392151,
    "name": "بدون ",
    "placeId": "betrayingunsignedconstrain - 1696349904931 - emk8N1sXapNil2mjHVOylF0D6c12",
    "status": "census_collected",
    "streetName": "طريق بني سويف الجيزه ",
    "type": "kiosk",
    "w3w": "betraying.unsigned.constrain"
  },
  "blizzardcourtswalnuts - 1683247837677 - vsVQG6MkRzQoqSlSMlHQvkQD7sB3": {
    "address": "احمد عرابي , المهندسين",
    "aislesCount": "0",
    "cashierCount": "1",
    "city": "giza",
    "crowdId": "vsVQG6MkRzQoqSlSMlHQvkQD7sB3",
    "districtName": "المهندسين",
    "employeeCount": "1",
    "image": "https://firebasestorage.googleapis.com/v0/b/shoof-e2613.appspot.com/o/MissionPhotos%2Fshops_census%2Fshops_census-vsVQG6MkRzQoqSlSMlHQvkQD7sB3-1683217349502%2Fstep3-1683217389807?alt=media&token=c3044c49-29e2-42e3-ad4a-e21bde316ba7",
    "lat": 30.062318606875298,
    "lng": 31.2125638872385,
    "name": "توب ميوزك",
    "placeId": "blizzardcourtswalnuts - 1683247837677 - vsVQG6MkRzQoqSlSMlHQvkQD7sB3",
    "status": "census_collected",
    "streetName": "احمد عرابي ",
    "type": "kiosk",
    "w3w": "blizzard.courts.walnuts"
  },
  "bookingsheavenlakeside": {
    "address": "بشتيل , بشتيل البلد",
    "aislesCount": "1",
    "cashierCount": "1",
    "city": "giza",
    "crowdId": "j3sXSlN5wvdvdBLkbLIaFMYBO5B2",
    "districtName": "بشتيل البلد",
    "employeeCount": "1",
    "image": "https://firebasestorage.googleapis.com/v0/b/shoof-e2613.appspot.com/o/MissionPhotos%2Fshops_census%2Fshops_census-j3sXSlN5wvdvdBLkbLIaFMYBO5B2-1645693717151%2Fstep3-1645693782093?alt=media&token=a0848165-156c-42f5-891d-721c3bda97d7",
    "lat": 30.083942416867313,
    "lng": 31.1919866502285,
    "name": "البدراوي",
    "placeId": "bookingsheavenlakeside",
    "status": "census_collected",
    "streetName": "بشتيل ",
    "type": "kiosk",
    "unavailableMissions": [
      "coca-price-monitor-kiosks"
    ],
    "w3w": "bookings.heaven.lakeside"
  },
  "bringspelledshortcuts - 1696161044867 - mkh83uu6FedueHcj8UbNWyQVITn1": {
    "address": "اللبينى, الهرم ",
    "aislesCount": "0",
    "cashierCount": "1",
    "city": "giza",
    "crowdId": "mkh83uu6FedueHcj8UbNWyQVITn1",
    "districtName": "الهرم ",
    "employeeCount": 2,
    "image": "https://firebasestorage.googleapis.com/v0/b/shoof-e2613.appspot.com/o/MissionPhotos%2Fshops_census%2Fshops_census-mkh83uu6FedueHcj8UbNWyQVITn1-1696163949607%2Fstep3-1696163990739?alt=media&token=12f4d244-3d9d-4461-a1d4-a4dc989156ec",
    "lat": 29.987244209921045,
    "lng": 31.14930231124163,
    "name": "دونجل",
    "placeId": "bringspelledshortcuts - 1696161044867 - mkh83uu6FedueHcj8UbNWyQVITn1",
    "status": "census_collected",
    "streetName": "اللبينى",
    "type": "kiosk",
    "w3w": "bring.spelled.shortcuts"
  },
  "bypassessidesrisks": {
    "address": "ترسا , هرم مريوطيه ",
    "city": "giza",
    "districtName": "هرم مريوطيه ",
    "image": "https://firebasestorage.googleapis.com/v0/b/shoof-e2613.appspot.com/o/MissionPhotos%2Fshops_census%2Fshops_census-blTlHy3wM1hJG4LeXO7xd9pr9Ao1-1626704651142%2Fstep1?alt=media&token=d929fcfd-04c1-4aac-b427-d2229d00c6e0",
    "lat": 29.9891797,
    "lng": 31.160365899999988,
    "name": "سوبر ماركت زين دهب",
    "placeId": "bypassessidesrisks",
    "status": "census_collected",
    "streetName": "ترسا ",
    "type": "kiosk",
    "w3w": "bypasses.sides.risks"
  },
  "cadetblowsclues - 1722674281558 - UPnb2hYjDaWDAWi9RPGXPLUGweI3": {
    "address": "الشارع الرئيسي, الضبعي",
    "aislesCount": "0",
    "cashierCount": "1",
    "city": "giza",
    "crowdId": "UPnb2hYjDaWDAWi9RPGXPLUGweI3",
    "districtName": "الضبعي",
    "employeeCount": "1",
    "image": "https://firebasestorage.googleapis.com/v0/b/shoof-e2613.appspot.com/o/MissionPhotos%2Fshops_census%2Fshops_census-UPnb2hYjDaWDAWi9RPGXPLUGweI3-1722555952694%2Fstep3-1722556003404?alt=media&token=b2fcaf16-4139-4126-a21b-9dd98b878105",
    "lat": 29.700182083328055,
    "lng": 31.262544840574265,
    "name": "عصائر زمزم",
    "placeId": "cadetblowsclues - 1722674281558 - UPnb2hYjDaWDAWi9RPGXPLUGweI3",
    "status": "census_collected",
    "streetName": "الشارع الرئيسي",
    "type": "kiosk",
    "unavailableMissions": [
      "coca-price-monitor-01"
    ],
    "w3w": "cadet.blows.clues"
  },
  "caravanstoastedcrazy": {
    "address": "قبل مستشفي الهرم, الهرم ",
    "city": "giza",
    "districtName": "الهرم ",
    "image": "https://firebasestorage.googleapis.com/v0/b/shoof-e2613.appspot.com/o/MissionPhotos%2Fshops_census%2Fshops_census-blTlHy3wM1hJG4LeXO7xd9pr9Ao1-1626380989533%2Fstep1?alt=media&token=dc778bae-224a-46d1-bfaa-d82ba3e1427c",
    "lat": 29.992875969990617,
    "lng": 31.156487613916397,
    "name": "كشك ",
    "placeId": "caravanstoastedcrazy",
    "status": "census_collected",
    "streetName": "قبل مستشفي الهرم",
    "type": "kiosk",
    "w3w": "caravans.toasted.crazy"
  },
  "cementedthudsundercuts - 1685303051569 - Q4O6IgEGPHTI0bMpYc1VyAKnyfu2": {
    "address": "الغيث, العجوزة ",
    "aislesCount": "0",
    "cashierCount": "1",
    "city": "giza",
    "crowdId": "Q4O6IgEGPHTI0bMpYc1VyAKnyfu2",
    "districtName": "العجوزة ",
    "employeeCount": 2,
    "image": "https://firebasestorage.googleapis.com/v0/b/shoof-e2613.appspot.com/o/MissionPhotos%2Fshops_census%2Fshops_census-Q4O6IgEGPHTI0bMpYc1VyAKnyfu2-1685283501439%2Fstep3-1685283585952?alt=media&token=d04b187e-a6d1-42aa-83ad-2089900bbb34",
    "lat": 30.059493421424097,
    "lng": 31.21388655155897,
    "name": "كشك مارينا ",
    "placeId": "cementedthudsundercuts - 1685303051569 - Q4O6IgEGPHTI0bMpYc1VyAKnyfu2",
    "status": "census_collected",
    "streetName": "الغيث",
    "type": "kiosk",
    "unavailableMissions": [
      "coca-price-monitor-kiosks"
    ],
    "w3w": "cemented.thuds.undercuts"
  },
  "centurydrizzlyhomelands": {
    "address": "نادى الصيد, الدقى",
    "aislesCount": "0",
    "cashierCount": "1",
    "city": "giza",
    "crowdId": "lV4If2tunWRyuvYGTJdHGgQ4pNN2",
    "districtName": "الدقى",
    "employeeCount": "1",
    "image": "https://firebasestorage.googleapis.com/v0/b/shoof-e2613.appspot.com/o/MissionPhotos%2Fshops_census%2Fshops_census-lV4If2tunWRyuvYGTJdHGgQ4pNN2-1645355364825%2Fstep3-1645355415415?alt=media&token=f9502b89-1715-4cdd-b5c5-1a96f9b1fe5f",
    "lat": 30.042696180592213,
    "lng": 31.200141571462154,
    "name": "الشعار",
    "placeId": "centurydrizzlyhomelands",
    "status": "census_collected",
    "streetName": "نادى الصيد",
    "type": "kiosk",
    "unavailableMissions": [
      "coca-price-monitor-kiosks"
    ],
    "w3w": "century.drizzly.homelands"
  },
  "charcoalskinnyearmarked - 1695305628420 - mkh83uu6FedueHcj8UbNWyQVITn1": {
    "address": "كوبرى الضبعى, كفر الضبعى العياط",
    "aislesCount": "0",
    "cashierCount": "1",
    "city": "giza",
    "crowdId": "mkh83uu6FedueHcj8UbNWyQVITn1",
    "districtName": "كفر الضبعى العياط",
    "employeeCount": 2,
    "image": "https://firebasestorage.googleapis.com/v0/b/shoof-e2613.appspot.com/o/MissionPhotos%2Fshops_census%2Fshops_census-mkh83uu6FedueHcj8UbNWyQVITn1-1695297656339%2Fstep3-1695297850270?alt=media&token=f01b765f-3d4b-4770-8e69-4dacc9ba26ef",
    "lat": 29.700274985936403,
    "lng": 31.2625827267766,
    "name": "بدون اسم كشك هانى",
    "placeId": "charcoalskinnyearmarked - 1695305628420 - mkh83uu6FedueHcj8UbNWyQVITn1",
    "status": "census_collected",
    "streetName": "كوبرى الضبعى",
    "type": "kiosk",
    "unavailableMissions": [
      "coca-price-monitor-01"
    ],
    "w3w": "charcoal.skinny.earmarked"
  },
  "chariotsslingexpanded": {
    "address": "التأمينات, ارض الجمعيه ",
    "city": "giza",
    "districtName": "ارض الجمعيه ",
    "image": "https://firebasestorage.googleapis.com/v0/b/shoof-e2613.appspot.com/o/MissionPhotos%2Fshops_census%2Fshops_census-VhuS8TSZxHRNSwUnv0w40IpZXP83-1626812999744%2Fstep1?alt=media&token=996d55c8-1070-4dc0-a9a2-4d2c4e957734",
    "lat": 30.090966932812254,
    "lng": 31.219424977898598,
    "name": "فوري",
    "placeId": "chariotsslingexpanded",
    "status": "census_collected",
    "streetName": "التأمينات",
    "type": "kiosk",
    "unavailableMissions": [
      "karate01",
      "coca-price-monitor-01",
      "coca-price-monitor-01"
    ],
    "w3w": "chariots.sling.expanded"
  },
  "circusbumpsforgot - 1696496661827 - hW0ZctY3j9OyBJGZuWAkVE8COri2": {
    "address": "الصاروخ, الجيزه",
    "aislesCount": "1",
    "cashierCount": "1",
    "city": "giza",
    "crowdId": "hW0ZctY3j9OyBJGZuWAkVE8COri2",
    "districtName": "الجيزه",
    "employeeCount": "1",
    "image": "https://firebasestorage.googleapis.com/v0/b/shoof-e2613.appspot.com/o/MissionPhotos%2Fshops_census%2Fshops_census-hW0ZctY3j9OyBJGZuWAkVE8COri2-1696427724820%2Fstep3-1696427883939?alt=media&token=eb9723b9-8e31-485d-a15a-a280d8ad7b12",
    "lat": 30.01453467977021,
    "lng": 31.208855733275414,
    "name": "كشك ام فيصل",
    "placeId": "circusbumpsforgot - 1696496661827 - hW0ZctY3j9OyBJGZuWAkVE8COri2",
    "status": "census_collected",
    "streetName": "الصاروخ",
    "type": "kiosk",
    "w3w": "circus.bumps.forgot"
  },
  "clashesexpressedinstead - 1697385178304 - svUSxYaN6pTXSzs4ER7tNDSO6gX2": {
    "address": "المركز القومي للبحوث, الدقي",
    "aislesCount": "0",
    "cashierCount": "1",
    "city": "giza",
    "crowdId": "svUSxYaN6pTXSzs4ER7tNDSO6gX2",
    "districtName": "الدقي",
    "employeeCount": "1",
    "image": "https://firebasestorage.googleapis.com/v0/b/shoof-e2613.appspot.com/o/MissionPhotos%2Fshops_census%2Fshops_census-svUSxYaN6pTXSzs4ER7tNDSO6gX2-1697380918580%2Fstep3-1697381010450?alt=media&token=d417707d-e0b5-42d4-b35e-29465a95e6bc",
    "lat": 30.036900935972685,
    "lng": 31.206425316631794,
    "name": " كشك 14",
    "placeId": "clashesexpressedinstead - 1697385178304 - svUSxYaN6pTXSzs4ER7tNDSO6gX2",
    "status": "census_collected",
    "streetName": "المركز القومي للبحوث",
    "type": "kiosk",
    "w3w": "clashes.expressed.instead"
  },
  "clickerglowenabling": {
    "address": "الرشيد, المهندسين",
    "city": "giza",
    "districtName": "المهندسين",
    "image": "https://firebasestorage.googleapis.com/v0/b/shoof-e2613.appspot.com/o/MissionPhotos%2Fshops_census%2Fshops_census-QeJQ466RAhfo0lGsJM1cA0fASkz1-1626106167084%2Fstep1?alt=media&token=bf4156a2-4ec8-465b-97bb-44dbe8943a20",
    "lat": 30.065753640549374,
    "lng": 31.202576011419296,
    "name": "عباد الرحمن",
    "placeId": "clickerglowenabling",
    "status": "census_collected",
    "streetName": "الرشيد",
    "type": "kiosk",
    "w3w": "clicker.glow.enabling"
  },
  "clingsexcavatedoverdone - 1685303086958 - Q4O6IgEGPHTI0bMpYc1VyAKnyfu2": {
    "address": "الغيث , العجوزة",
    "aislesCount": "0",
    "cashierCount": "1",
    "city": "giza",
    "crowdId": "Q4O6IgEGPHTI0bMpYc1VyAKnyfu2",
    "districtName": "العجوزة",
    "employeeCount": 2,
    "image": "https://firebasestorage.googleapis.com/v0/b/shoof-e2613.appspot.com/o/MissionPhotos%2Fshops_census%2Fshops_census-Q4O6IgEGPHTI0bMpYc1VyAKnyfu2-1685285335789%2Fstep3-1685285417329?alt=media&token=bc55994e-5a20-4fb2-9361-aaa5f77b843c",
    "lat": 30.058602264134667,
    "lng": 31.214248649775982,
    "name": "عصمت ",
    "placeId": "clingsexcavatedoverdone - 1685303086958 - Q4O6IgEGPHTI0bMpYc1VyAKnyfu2",
    "status": "census_collected",
    "streetName": "الغيث ",
    "type": "kiosk",
    "unavailableMissions": [
      "coca-price-monitor-kiosks"
    ],
    "w3w": "clings.excavated.overdone"
  },
  "coastingseatingalley": {
    "address": "وزارة الزراعه, الدقى",
    "aislesCount": "0",
    "cashierCount": "1",
    "city": "giza",
    "crowdId": "lV4If2tunWRyuvYGTJdHGgQ4pNN2",
    "districtName": "الدقى",
    "employeeCount": "1",
    "image": "https://firebasestorage.googleapis.com/v0/b/shoof-e2613.appspot.com/o/MissionPhotos%2Fshops_census%2Fshops_census-lV4If2tunWRyuvYGTJdHGgQ4pNN2-1645100654363%2Fstep3-1645100692054?alt=media&token=3f2d8b0f-f161-45eb-a7f6-eee0a2a50602",
    "lat": 30.043612731031075,
    "lng": 31.20750155299902,
    "name": "محمود",
    "placeId": "coastingseatingalley",
    "status": "census_collected",
    "streetName": "وزارة الزراعه",
    "type": "kiosk",
    "w3w": "coasting.seating.alley"
  },
  "collaboratedserotonincute - 1696361512845 - hdvXzMjnxve39j8d49c03wW05yr1": {
    "address": "شارع العياط, العياط",
    "aislesCount": "0",
    "cashierCount": "1",
    "city": "giza",
    "crowdId": "hdvXzMjnxve39j8d49c03wW05yr1",
    "districtName": "العياط",
    "employeeCount": "1",
    "image": "https://firebasestorage.googleapis.com/v0/b/shoof-e2613.appspot.com/o/MissionPhotos%2Fshops_census%2Fshops_census-hdvXzMjnxve39j8d49c03wW05yr1-1696362406795%2Fstep3-1696362498429?alt=media&token=8545cf14-40d3-46d5-8076-2845c969b767",
    "lat": 29.626537778358966,
    "lng": 31.259696669876572,
    "name": "بقالة عم عصام",
    "placeId": "collaboratedserotonincute - 1696361512845 - hdvXzMjnxve39j8d49c03wW05yr1",
    "status": "census_collected",
    "streetName": "شارع العياط",
    "type": "kiosk",
    "unavailableMissions": [
      "coca-price-monitor-01"
    ],
    "w3w": "collaborated.serotonin.cute"
  },
  "collectnamesgratitude": {
    "address": "ش عصائر الضامر, المنيره",
    "city": "giza",
    "districtName": "المنيره",
    "image": "https://firebasestorage.googleapis.com/v0/b/shoof-e2613.appspot.com/o/MissionPhotos%2Fshops_census%2Fshops_census-VhuS8TSZxHRNSwUnv0w40IpZXP83-1626807250096%2Fstep1?alt=media&token=7d4ac39a-1650-431b-a113-df351975a0d2",
    "lat": 30.0822670074373,
    "lng": 31.215410716831684,
    "name": "ال ياسر",
    "placeId": "collectnamesgratitude",
    "status": "census_collected",
    "streetName": "ش عصائر الضامر",
    "type": "kiosk",
    "unavailableMissions": [
      "karate01"
    ],
    "w3w": "collect.names.gratitude"
  },
  "collideshinderingbravery - 1696350037152 - emk8N1sXapNil2mjHVOylF0D6c12": {
    "address": "طريق بني سويف الجيزه, البدرشين",
    "aislesCount": "1",
    "cashierCount": "1",
    "city": "giza",
    "crowdId": "emk8N1sXapNil2mjHVOylF0D6c12",
    "districtName": "البدرشين",
    "employeeCount": "1",
    "image": "https://firebasestorage.googleapis.com/v0/b/shoof-e2613.appspot.com/o/MissionPhotos%2Fshops_census%2Fshops_census-emk8N1sXapNil2mjHVOylF0D6c12-1696349352816%2Fstep3-1696349401757?alt=media&token=446b34d8-39a6-4107-a47b-b761e3c68ef4",
    "lat": 29.848698493259903,
    "lng": 31.282810270786285,
    "name": "بدون بافطه ",
    "placeId": "collideshinderingbravery - 1696350037152 - emk8N1sXapNil2mjHVOylF0D6c12",
    "status": "census_collected",
    "streetName": "طريق بني سويف الجيزه",
    "type": "kiosk",
    "w3w": "collides.hindering.bravery"
  },
  "combineslifeboatssulky - 1681089609978 - VE6ebK6W46OdL2E5eCzzcsAqLDb2": {
    "address": "حمد ياسين, الطوابق فيصل",
    "aislesCount": "0",
    "cashierCount": "1",
    "city": "giza",
    "crowdId": "VE6ebK6W46OdL2E5eCzzcsAqLDb2",
    "districtName": "الطوابق فيصل",
    "employeeCount": 2,
    "image": "https://firebasestorage.googleapis.com/v0/b/shoof-e2613.appspot.com/o/MissionPhotos%2Fshops_census%2Fshops_census-VE6ebK6W46OdL2E5eCzzcsAqLDb2-1671799892317%2Fstep3-1671799925976?alt=media&token=aeb5170f-92de-4243-981f-f0e933624f37",
    "lat": 30.012442066398663,
    "lng": 31.15579593926668,
    "name": "الارزاق بالله ",
    "placeId": "combineslifeboatssulky - 1681089609978 - VE6ebK6W46OdL2E5eCzzcsAqLDb2",
    "status": "census_collected",
    "streetName": "حمد ياسين",
    "type": "kiosk",
    "w3w": "combines.lifeboats.sulky"
  },
  "complyvalidcomposers": {
    "address": "شارع ايران, الدقى",
    "aislesCount": "0",
    "cashierCount": "1",
    "city": "giza",
    "crowdId": "lV4If2tunWRyuvYGTJdHGgQ4pNN2",
    "districtName": "الدقى",
    "employeeCount": "1",
    "image": "https://firebasestorage.googleapis.com/v0/b/shoof-e2613.appspot.com/o/MissionPhotos%2Fshops_census%2Fshops_census-lV4If2tunWRyuvYGTJdHGgQ4pNN2-1646046659249%2Fstep3-1646046720280?alt=media&token=6bf4b659-49af-4f90-b994-1ff6a7e9f5b2",
    "lat": 30.037165062772015,
    "lng": 31.202114336192604,
    "name": "فورى",
    "placeId": "complyvalidcomposers",
    "status": "census_collected",
    "streetName": "شارع ايران",
    "type": "kiosk",
    "unavailableMissions": [
      "coca-price-monitor-01"
    ],
    "w3w": "comply.valid.composers"
  },
  "compoundstoastersshoebox": {
    "address": "الحريه, الجمعيه ",
    "city": "giza",
    "districtName": "الجمعيه ",
    "image": "https://firebasestorage.googleapis.com/v0/b/shoof-e2613.appspot.com/o/MissionPhotos%2Fshops_census%2Fshops_census-VhuS8TSZxHRNSwUnv0w40IpZXP83-1626390671998%2Fstep1?alt=media&token=33e6b670-9b04-4c23-819d-33a11be61495",
    "lat": 30.072430983985456,
    "lng": 31.21091265231371,
    "name": "ماركت شريف",
    "placeId": "compoundstoastersshoebox",
    "status": "census_collected",
    "streetName": "الحريه",
    "type": "kiosk",
    "unavailableMissions": [
      "karate01",
      "chipsyfh01",
      "coca-price-monitor-01"
    ],
    "w3w": "compounds.toasters.shoebox"
  },
  "copyingtombhomecare": {
    "address": "مبين فيصل وهرم, فيصل",
    "city": "giza",
    "districtName": "فيصل",
    "image": "https://firebasestorage.googleapis.com/v0/b/shoof-e2613.appspot.com/o/MissionPhotos%2Fshops_census%2Fshops_census-blTlHy3wM1hJG4LeXO7xd9pr9Ao1-1626540649623%2Fstep1?alt=media&token=cef42ef9-b07b-4f51-a953-ef594ba51454",
    "lat": 29.992906169348437,
    "lng": 31.147975623607635,
    "name": "كشك الميريدان",
    "placeId": "copyingtombhomecare",
    "status": "census_collected",
    "streetName": "مبين فيصل وهرم",
    "type": "kiosk",
    "w3w": "copying.tomb.homecare"
  },
  "correctlyfeastingmime - 1697371984820 - mkh83uu6FedueHcj8UbNWyQVITn1": {
    "address": "الجيش, العياط",
    "aislesCount": "1",
    "cashierCount": "1",
    "city": "giza",
    "crowdId": "mkh83uu6FedueHcj8UbNWyQVITn1",
    "districtName": "العياط",
    "employeeCount": 2,
    "image": "https://firebasestorage.googleapis.com/v0/b/shoof-e2613.appspot.com/o/MissionPhotos%2Fshops_census%2Fshops_census-mkh83uu6FedueHcj8UbNWyQVITn1-1697375431584%2Fstep3-1697375483224?alt=media&token=07a8b609-1258-42f7-9202-5f36febc410a",
    "lat": 29.621035453889615,
    "lng": 31.255962699651715,
    "name": "عصائر زمزم",
    "placeId": "correctlyfeastingmime - 1697371984820 - mkh83uu6FedueHcj8UbNWyQVITn1",
    "status": "census_collected",
    "streetName": "الجيش",
    "type": "kiosk",
    "w3w": "correctly.feasting.mime"
  },
  "criesprocuresintervene - 1683247907426 - vsVQG6MkRzQoqSlSMlHQvkQD7sB3": {
    "address": "سور نادي التوفيقيه, مدينة الاعلام",
    "aislesCount": "0",
    "cashierCount": "1",
    "city": "giza",
    "crowdId": "vsVQG6MkRzQoqSlSMlHQvkQD7sB3",
    "districtName": "مدينة الاعلام",
    "employeeCount": "1",
    "image": "https://firebasestorage.googleapis.com/v0/b/shoof-e2613.appspot.com/o/MissionPhotos%2Fshops_census%2Fshops_census-vsVQG6MkRzQoqSlSMlHQvkQD7sB3-1683219761830%2Fstep3-1683219814805?alt=media&token=aea9175d-77b0-48a4-bb24-d54db3d498ba",
    "lat": 30.065392384380935,
    "lng": 31.205628700554367,
    "name": "الحمد",
    "placeId": "criesprocuresintervene - 1683247907426 - vsVQG6MkRzQoqSlSMlHQvkQD7sB3",
    "status": "census_collected",
    "streetName": "سور نادي التوفيقيه",
    "type": "kiosk",
    "w3w": "cries.procures.intervene"
  },
  "croakingalmostrollers - 1696530732796 - eUNoHTTjovXLvjkERIpzyHWuO9h2": {
    "address": "نادي شركه السكر , الحومديه ",
    "aislesCount": "0",
    "cashierCount": "1",
    "city": "giza",
    "crowdId": "eUNoHTTjovXLvjkERIpzyHWuO9h2",
    "districtName": "الحومديه ",
    "employeeCount": "1",
    "image": "https://firebasestorage.googleapis.com/v0/b/shoof-e2613.appspot.com/o/MissionPhotos%2Fshops_census%2Fshops_census-eUNoHTTjovXLvjkERIpzyHWuO9h2-1696522811122%2Fstep3-1696522838904?alt=media&token=62364350-becd-4ae9-b12d-c0f22ee8ae93",
    "lat": 29.89360088907799,
    "lng": 31.271102763712406,
    "name": "بدون اسم ",
    "placeId": "croakingalmostrollers - 1696530732796 - eUNoHTTjovXLvjkERIpzyHWuO9h2",
    "status": "census_collected",
    "streetName": "نادي شركه السكر ",
    "type": "kiosk",
    "w3w": "croaking.almost.rollers"
  },
  "crumbleshamehurry": {
    "address": "النصر , ارض الجمعيه ",
    "city": "giza",
    "districtName": "ارض الجمعيه ",
    "image": "https://firebasestorage.googleapis.com/v0/b/shoof-e2613.appspot.com/o/MissionPhotos%2Fshops_census%2Fshops_census-VhuS8TSZxHRNSwUnv0w40IpZXP83-1626810320528%2Fstep1?alt=media&token=2ca77c15-f8bf-475c-ac9f-ceff2f114367",
    "lat": 30.087347109523805,
    "lng": 31.21686816215515,
    "name": "كشك السلم",
    "placeId": "crumbleshamehurry",
    "status": "census_collected",
    "streetName": "النصر ",
    "type": "kiosk",
    "unavailableMissions": [
      "karate01",
      "coca-price-monitor-01"
    ],
    "w3w": "crumble.shame.hurry"
  },
  "currentlyhidingjudges": {
    "address": "النصر , ارض الجمعيه ",
    "city": "giza",
    "districtName": "ارض الجمعيه ",
    "image": "https://firebasestorage.googleapis.com/v0/b/shoof-e2613.appspot.com/o/MissionPhotos%2Fshops_census%2Fshops_census-VhuS8TSZxHRNSwUnv0w40IpZXP83-1626811969388%2Fstep1?alt=media&token=e1249a34-28c1-4aa1-bc24-eb221b8f84dc",
    "lat": 30.09180094127333,
    "lng": 31.21810633689165,
    "name": "كشك زلط",
    "placeId": "currentlyhidingjudges",
    "status": "census_collected",
    "streetName": "النصر ",
    "type": "kiosk",
    "unavailableMissions": [
      "karate01",
      "coca-price-monitor-01"
    ],
    "w3w": "currently.hiding.judges"
  },
  "custodialadoptsdates": {
    "address": "الفريق عبد المنعم رياض , العجوزة ",
    "city": "giza",
    "districtName": "العجوزة ",
    "image": "https://firebasestorage.googleapis.com/v0/b/shoof-e2613.appspot.com/o/MissionPhotos%2Fshops_census%2Fshops_census-VhuS8TSZxHRNSwUnv0w40IpZXP83-1626709706785%2Fstep1?alt=media&token=52ff410d-c568-4281-ad46-9bc345da5ae5",
    "lat": 30.057247666476833,
    "lng": 31.21216122061014,
    "name": "وفي السماء رزقكم وما توعدون ",
    "placeId": "custodialadoptsdates",
    "status": "census_collected",
    "streetName": "الفريق عبد المنعم رياض ",
    "type": "kiosk",
    "unavailableMissions": [
      "coca-price-monitor-kiosks"
    ],
    "w3w": "custodial.adopts.dates"
  },
  "deludedrekindlerefer": {
    "address": "نادي امبابه الرياضيي, المنيره ",
    "city": "giza",
    "districtName": "المنيره ",
    "image": "https://firebasestorage.googleapis.com/v0/b/shoof-e2613.appspot.com/o/MissionPhotos%2Fshops_census%2Fshops_census-VhuS8TSZxHRNSwUnv0w40IpZXP83-1626808632414%2Fstep1?alt=media&token=d4c8c97e-74f6-42b1-beec-e51a77892e30",
    "lat": 30.08459400566618,
    "lng": 31.21627103537321,
    "name": "كشك بيبسي  قبل محل  النواوي",
    "placeId": "deludedrekindlerefer",
    "status": "census_collected",
    "streetName": "نادي امبابه الرياضيي",
    "type": "kiosk",
    "unavailableMissions": [
      "karate01",
      "coca-price-monitor-01"
    ],
    "w3w": "deluded.rekindle.refer"
  },
  "dentedhourglassstreaks": {
    "address": "المريوطية فيصل, فيصل",
    "city": "giza",
    "districtName": "فيصل",
    "image": "https://firebasestorage.googleapis.com/v0/b/shoof-e2613.appspot.com/o/MissionPhotos%2Fshops_census%2Fshops_census-blTlHy3wM1hJG4LeXO7xd9pr9Ao1-1626540190626%2Fstep1?alt=media&token=9d413fd5-4b7d-477b-86d9-1d8e6232c518",
    "lat": 29.993448304333935,
    "lng": 31.147278919816017,
    "name": "كشك الشهيد ماهر",
    "placeId": "dentedhourglassstreaks",
    "status": "census_collected",
    "streetName": "المريوطية فيصل",
    "type": "kiosk",
    "w3w": "dented.hourglass.streaks"
  },
  "desireslylyexpel - 1696763032943 - TKCMNKLEASMNteA0SKUYDMzj3td2": {
    "address": "الطرابيشي, الطرابيشي ",
    "aislesCount": "1",
    "cashierCount": "1",
    "city": "giza",
    "crowdId": "TKCMNKLEASMNteA0SKUYDMzj3td2",
    "districtName": "الطرابيشي ",
    "employeeCount": "1",
    "image": "https://firebasestorage.googleapis.com/v0/b/shoof-e2613.appspot.com/o/MissionPhotos%2Fshops_census%2Fshops_census-TKCMNKLEASMNteA0SKUYDMzj3td2-1696760759515%2Fstep3-1696761024961?alt=media&token=34d9de83-cf2b-445c-b6b8-ea9bf6c02d7a",
    "lat": 30.05951112261106,
    "lng": 31.270279325544834,
    "name": "بقالة الحمد ",
    "placeId": "desireslylyexpel - 1696763032943 - TKCMNKLEASMNteA0SKUYDMzj3td2",
    "status": "census_collected",
    "streetName": "الطرابيشي",
    "type": "kiosk",
    "w3w": "desire.slyly.expel"
  },
  "destinedcloakcontained": {
    "address": "الهرم, مريوطيه ",
    "city": "giza",
    "districtName": "مريوطيه ",
    "image": "https://firebasestorage.googleapis.com/v0/b/shoof-e2613.appspot.com/o/MissionPhotos%2Fshops_census%2Fshops_census-blTlHy3wM1hJG4LeXO7xd9pr9Ao1-1626541813448%2Fstep1?alt=media&token=41564cf5-36e0-4180-aca8-24a4adc934ba",
    "lat": 29.990632770852386,
    "lng": 31.149471290409565,
    "name": "كشك ريشه",
    "placeId": "destinedcloakcontained",
    "status": "census_collected",
    "streetName": "الهرم",
    "type": "kiosk",
    "w3w": "destined.cloak.contained"
  },
  "devouredcertifiedexhale - 1695899067033 - WwtObazLu1R9xmUPZK4v4lqr3II2": {
    "address": "شارع فريد شوقي , المهندسين ",
    "aislesCount": "0",
    "cashierCount": "1",
    "city": "giza",
    "crowdId": "WwtObazLu1R9xmUPZK4v4lqr3II2",
    "districtName": "المهندسين ",
    "employeeCount": "1",
    "image": "https://firebasestorage.googleapis.com/v0/b/shoof-e2613.appspot.com/o/MissionPhotos%2Fshops_census%2Fshops_census-WwtObazLu1R9xmUPZK4v4lqr3II2-1695894146774%2Fstep3-1695894182016?alt=media&token=46cf1b21-de48-4de9-8afa-3ade19d14b4f",
    "lat": 30.05431728448467,
    "lng": 31.210453994572163,
    "name": "كشك اكسلانس",
    "placeId": "devouredcertifiedexhale - 1695899067033 - WwtObazLu1R9xmUPZK4v4lqr3II2",
    "status": "census_collected",
    "streetName": "شارع فريد شوقي ",
    "type": "kiosk",
    "w3w": "devoured.certified.exhale"
  },
  "digitalmaddeningspellings": {
    "address": "السوق, عزيز عزت",
    "city": "giza",
    "districtName": "عزيز عزت",
    "image": "https://firebasestorage.googleapis.com/v0/b/shoof-e2613.appspot.com/o/MissionPhotos%2Fshops_census%2Fshops_census-VhuS8TSZxHRNSwUnv0w40IpZXP83-1626383450149%2Fstep1?alt=media&token=38a4f525-a3ae-4fdb-9737-2ee09a12f5a4",
    "lat": 30.072214535213195,
    "lng": 31.21408972889185,
    "name": "كشك اسلام بليه",
    "placeId": "digitalmaddeningspellings",
    "status": "census_collected",
    "streetName": "السوق",
    "type": "kiosk",
    "unavailableMissions": [
      "coca-price-monitor-01"
    ],
    "w3w": "digital.maddening.spellings"
  },
  "diplomasnationweeded": {
    "address": "الهرم مريوطيه , الهرم",
    "city": "giza",
    "districtName": "الهرم",
    "image": "https://firebasestorage.googleapis.com/v0/b/shoof-e2613.appspot.com/o/MissionPhotos%2Fshops_census%2Fshops_census-blTlHy3wM1hJG4LeXO7xd9pr9Ao1-1626541944920%2Fstep1?alt=media&token=f49b88fd-ccf3-44e2-a6a3-7aff6218a4e5",
    "lat": 29.989035059471888,
    "lng": 31.150263883173466,
    "name": "كشك djeep paris",
    "placeId": "diplomasnationweeded",
    "status": "census_collected",
    "streetName": "الهرم مريوطيه ",
    "type": "kiosk",
    "w3w": "diplomas.nation.weeded"
  },
  "drippingredeeminggives - 1705503553142 - hbwIT5If2GZq4BUdqSLuLIey6po1": {
    "address": "محمد خلف, الدقي",
    "aislesCount": "0",
    "cashierCount": "1",
    "city": "giza",
    "crowdId": "hbwIT5If2GZq4BUdqSLuLIey6po1",
    "districtName": "الدقي",
    "employeeCount": "1",
    "image": "https://firebasestorage.googleapis.com/v0/b/shoof-e2613.appspot.com/o/MissionPhotos%2Fshops_census%2Fshops_census-hbwIT5If2GZq4BUdqSLuLIey6po1-1705499781419%2Fstep3-1705500067757?alt=media&token=c6a46749-189c-4b12-bd1a-68d5d7cc10a0",
    "lat": 30.040758858774936,
    "lng": 31.2139767408371,
    "name": "اولا خضر",
    "placeId": "drippingredeeminggives - 1705503553142 - hbwIT5If2GZq4BUdqSLuLIey6po1",
    "status": "census_collected",
    "streetName": "محمد خلف",
    "type": "kiosk",
    "w3w": "dripping.redeeming.gives"
  },
  "dropstreetopunroll - 1696531224718 - eUNoHTTjovXLvjkERIpzyHWuO9h2": {
    "address": "كوبري الحوامديه , الحوامديه ",
    "aislesCount": "1",
    "cashierCount": "1",
    "city": "giza",
    "crowdId": "eUNoHTTjovXLvjkERIpzyHWuO9h2",
    "districtName": "الحوامديه ",
    "employeeCount": "1",
    "image": "https://firebasestorage.googleapis.com/v0/b/shoof-e2613.appspot.com/o/MissionPhotos%2Fshops_census%2Fshops_census-eUNoHTTjovXLvjkERIpzyHWuO9h2-1696530037154%2Fstep3-1696530097317?alt=media&token=64f5791a-e97c-4da7-bec0-30170308155c",
    "lat": 29.896289245300895,
    "lng": 31.26513484865427,
    "name": "بدون اسم",
    "placeId": "dropstreetopunroll - 1696531224718 - eUNoHTTjovXLvjkERIpzyHWuO9h2",
    "status": "census_collected",
    "streetName": "كوبري الحوامديه ",
    "type": "kiosk",
    "w3w": "drops.treetop.unroll"
  },
  "eaglepigletscave": {
    "address": "ممدوح سالم, الوحدة ",
    "city": "giza",
    "districtName": "الوحدة ",
    "image": "https://firebasestorage.googleapis.com/v0/b/shoof-e2613.appspot.com/o/MissionPhotos%2Fshops_census%2Fshops_census-VhuS8TSZxHRNSwUnv0w40IpZXP83-1626809843701%2Fstep1?alt=media&token=8872ccc9-664e-4681-b6a3-1c2c3f34571b",
    "lat": 30.086862348323933,
    "lng": 31.216791048645973,
    "name": "نجمة امبابه ",
    "placeId": "eaglepigletscave",
    "status": "census_collected",
    "streetName": "ممدوح سالم",
    "type": "kiosk",
    "unavailableMissions": [
      "karate01",
      "coca-price-monitor-01"
    ],
    "w3w": "eagle.piglets.cave"
  },
  "encounterinflamedgalloped - 1683247490432 - r5rCBVxj4yTddH4hU8D3fQXq0OC3": {
    "address": "الشيخ محمد بن حمدان, العشرين فيصل",
    "aislesCount": "1",
    "cashierCount": "2",
    "city": "giza",
    "crowdId": "r5rCBVxj4yTddH4hU8D3fQXq0OC3",
    "districtName": "العشرين فيصل",
    "employeeCount": "5+",
    "image": "https://firebasestorage.googleapis.com/v0/b/shoof-e2613.appspot.com/o/MissionPhotos%2Fshops_census%2Fshops_census-r5rCBVxj4yTddH4hU8D3fQXq0OC3-1683246485619%2Fstep3-1683246553625?alt=media&token=8830e910-c198-42e3-bed6-a6c85299d46d",
    "lat": 30.015101663554933,
    "lng": 31.18345756083727,
    "name": "الكرنك",
    "placeId": "encounterinflamedgalloped - 1683247490432 - r5rCBVxj4yTddH4hU8D3fQXq0OC3",
    "status": "census_collected",
    "streetName": "الشيخ محمد بن حمدان",
    "type": "kiosk",
    "w3w": "encounter.inflamed.galloped"
  },
  "eradicateincludeshaunt": {
    "address": "د النبوي, العجوزة ",
    "city": "giza",
    "districtName": "العجوزة ",
    "image": "https://firebasestorage.googleapis.com/v0/b/shoof-e2613.appspot.com/o/MissionPhotos%2Fshops_census%2Fshops_census-VhuS8TSZxHRNSwUnv0w40IpZXP83-1626708948796%2Fstep1?alt=media&token=f25c74ea-022f-4717-8c0d-396767e1319c",
    "lat": 30.05978969825121,
    "lng": 31.211472898721695,
    "name": "اولاد بيومي",
    "placeId": "eradicateincludeshaunt",
    "status": "census_collected",
    "streetName": "د النبوي",
    "type": "kiosk",
    "w3w": "eradicate.includes.haunt"
  },
  "escapadespulsingpredict": {
    "address": "اللبيني, الهرم",
    "city": "giza",
    "districtName": "الهرم",
    "image": "https://firebasestorage.googleapis.com/v0/b/shoof-e2613.appspot.com/o/MissionPhotos%2Fshops_census%2Fshops_census-jRQTnx4bx6Zbu2OVW4gF4S1gZ592-1626536697554%2Fstep1?alt=media&token=16d0800d-f83c-4e94-94a4-90a52029c58b",
    "lat": 29.9884131,
    "lng": 31.14863650000001,
    "name": "ابن الحلال",
    "placeId": "escapadespulsingpredict",
    "status": "census_collected",
    "streetName": "اللبيني",
    "type": "kiosk",
    "w3w": "escapades.pulsing.predict"
  },
  "estimatesfriendsgardens": {
    "address": "ابو المعاطي, العجوزة ",
    "city": "giza",
    "districtName": "العجوزة ",
    "image": "https://firebasestorage.googleapis.com/v0/b/shoof-e2613.appspot.com/o/MissionPhotos%2Fshops_census%2Fshops_census-VhuS8TSZxHRNSwUnv0w40IpZXP83-1626709123036%2Fstep1?alt=media&token=52cc93ab-1884-4c83-9378-f6c06890c306",
    "lat": 30.059031448343784,
    "lng": 31.212273873388767,
    "name": "كشك الصعيدي",
    "placeId": "estimatesfriendsgardens",
    "status": "census_collected",
    "streetName": "ابو المعاطي",
    "type": "kiosk",
    "unavailableMissions": [
      "coca-price-monitor-kiosks"
    ],
    "w3w": "estimates.friends.gardens"
  },
  "evokesilverpinches - 1695470290022 - mkh83uu6FedueHcj8UbNWyQVITn1": {
    "address": "طريق مصر اسيوط الزراعى , ايو نجم العياط",
    "aislesCount": "1",
    "cashierCount": "1",
    "city": "giza",
    "crowdId": "mkh83uu6FedueHcj8UbNWyQVITn1",
    "districtName": "ايو نجم العياط",
    "employeeCount": 2,
    "image": "https://firebasestorage.googleapis.com/v0/b/shoof-e2613.appspot.com/o/MissionPhotos%2Fshops_census%2Fshops_census-mkh83uu6FedueHcj8UbNWyQVITn1-1695461116546%2Fstep3-1695461179295?alt=media&token=547990a3-a8ee-4c0e-b5c4-69e0f0e345e1",
    "lat": 29.696368633778164,
    "lng": 31.265411451458927,
    "name": "يدون اسم (كشك الروبي)",
    "placeId": "evokesilverpinches - 1695470290022 - mkh83uu6FedueHcj8UbNWyQVITn1",
    "status": "census_collected",
    "streetName": "طريق مصر اسيوط الزراعى ",
    "type": "kiosk",
    "w3w": "evoke.silver.pinches"
  },
  "exclusivesystempalms": {
    "address": "الحريه, عزيز عزت ",
    "city": "giza",
    "districtName": "عزيز عزت ",
    "image": "https://firebasestorage.googleapis.com/v0/b/shoof-e2613.appspot.com/o/MissionPhotos%2Fshops_census%2Fshops_census-VhuS8TSZxHRNSwUnv0w40IpZXP83-1626561207813%2Fstep1?alt=media&token=2ec3ba80-8652-4087-91bb-a0a5beecc0da",
    "lat": 30.071508026877385,
    "lng": 31.213355474174023,
    "name": "كشك كريم سكه",
    "placeId": "exclusivesystempalms",
    "status": "census_collected",
    "streetName": "الحريه",
    "type": "kiosk",
    "unavailableMissions": [
      "karate01",
      "coca-price-monitor-01"
    ],
    "w3w": "exclusive.system.palms"
  },
  "exhalingperchabsorbs": {
    "address": "السودان, بولاق الدكرور",
    "aislesCount": "0",
    "cashierCount": "1",
    "city": "giza",
    "crowdId": "lV4If2tunWRyuvYGTJdHGgQ4pNN2",
    "districtName": "بولاق الدكرور",
    "employeeCount": "1",
    "image": "https://firebasestorage.googleapis.com/v0/b/shoof-e2613.appspot.com/o/MissionPhotos%2Fshops_census%2Fshops_census-lV4If2tunWRyuvYGTJdHGgQ4pNN2-1645354137478%2Fstep3-1645354220642?alt=media&token=3282cf11-0316-4798-8fac-82badd2f756c",
    "lat": 30.041790070144835,
    "lng": 31.19405094534159,
    "name": "صابر السودان",
    "placeId": "exhalingperchabsorbs",
    "status": "census_collected",
    "streetName": "السودان",
    "type": "kiosk",
    "w3w": "exhaling.perch.absorbs"
  },
  "expandlakesyummy": {
    "address": "الهرم عريش, الهرم ",
    "city": "giza",
    "districtName": "الهرم ",
    "image": "https://firebasestorage.googleapis.com/v0/b/shoof-e2613.appspot.com/o/MissionPhotos%2Fshops_census%2Fshops_census-blTlHy3wM1hJG4LeXO7xd9pr9Ao1-1626388321180%2Fstep1?alt=media&token=abd656d3-be4f-420d-97cc-ec5d8c1b1020",
    "lat": 29.994228253382595,
    "lng": 31.16069197654724,
    "name": "ميني ماركت ركن الصفا",
    "placeId": "expandlakesyummy",
    "status": "census_collected",
    "streetName": "الهرم عريش",
    "type": "kiosk",
    "w3w": "expand.lakes.yummy"
  },
  "eyelashcubeinstincts - 1671459089073 - HiifSwKoEkOeX1FL7TCWRZffH6S2": {
    "address": "محور ٢٦ يوليو, ٦اكتوبر",
    "aislesCount": "2+",
    "cashierCount": "1",
    "city": "giza",
    "crowdId": "HiifSwKoEkOeX1FL7TCWRZffH6S2",
    "districtName": "٦اكتوبر",
    "employeeCount": "5+",
    "image": "https://firebasestorage.googleapis.com/v0/b/shoof-e2613.appspot.com/o/MissionPhotos%2Fshops_census%2Fshops_census-HiifSwKoEkOeX1FL7TCWRZffH6S2-1671455418250%2Fstep3-1671455543589?alt=media&token=217c6e64-6c37-4b12-a5d2-ec232887ed18",
    "lat": 29.981618519450155,
    "lng": 30.953736081719402,
    "name": "Circle K - green park",
    "placeId": "eyelashcubeinstincts - 1671459089073 - HiifSwKoEkOeX1FL7TCWRZffH6S2",
    "status": "census_collected",
    "streetName": "محور ٢٦ يوليو",
    "type": "kiosk",
    "w3w": "eyelash.cube.instincts"
  },
  "fireworkdaredevilslip": {
    "address": "نادي امبابه الرياضي, المنيره",
    "city": "giza",
    "districtName": "المنيره",
    "image": "https://firebasestorage.googleapis.com/v0/b/shoof-e2613.appspot.com/o/MissionPhotos%2Fshops_census%2Fshops_census-VhuS8TSZxHRNSwUnv0w40IpZXP83-1626806538625%2Fstep1?alt=media&token=ca0d456f-f537-48c0-a597-e13999b368e2",
    "lat": 30.081618304493784,
    "lng": 31.215206533670425,
    "name": "الجهيني",
    "placeId": "fireworkdaredevilslip",
    "status": "census_collected",
    "streetName": "نادي امبابه الرياضي",
    "type": "kiosk",
    "unavailableMissions": [
      "karate01",
      "chipsyfh01",
      "coca-price-monitor-01"
    ],
    "w3w": "firework.daredevil.slip"
  },
  "flaggingrungschilled": {
    "address": "نادى الصيد, الدقى",
    "aislesCount": "0",
    "cashierCount": "1",
    "city": "giza",
    "crowdId": "lV4If2tunWRyuvYGTJdHGgQ4pNN2",
    "districtName": "الدقى",
    "employeeCount": "1",
    "image": "https://firebasestorage.googleapis.com/v0/b/shoof-e2613.appspot.com/o/MissionPhotos%2Fshops_census%2Fshops_census-lV4If2tunWRyuvYGTJdHGgQ4pNN2-1645355071681%2Fstep3-1645355134314?alt=media&token=c9e84a09-2fa4-4496-aae9-50d0fd2e9ce0",
    "lat": 30.042831719142608,
    "lng": 31.19934026151896,
    "name": "العالمى",
    "placeId": "flaggingrungschilled",
    "status": "census_collected",
    "streetName": "نادى الصيد",
    "type": "kiosk",
    "w3w": "flagging.rungs.chilled"
  },
  "flukeslandmarkwhisker": {
    "address": "الهرم مريوطيه , الهرم",
    "city": "giza",
    "districtName": "الهرم",
    "image": "https://firebasestorage.googleapis.com/v0/b/shoof-e2613.appspot.com/o/MissionPhotos%2Fshops_census%2Fshops_census-blTlHy3wM1hJG4LeXO7xd9pr9Ao1-1626541101724%2Fstep1?alt=media&token=f89575af-42dc-4cdb-a59c-3f84da1870af",
    "lat": 29.991646790255132,
    "lng": 31.149098463356495,
    "name": "كشك الارزاق بالله",
    "placeId": "flukeslandmarkwhisker",
    "status": "census_collected",
    "streetName": "الهرم مريوطيه ",
    "type": "kiosk",
    "w3w": "flukes.landmark.whisker"
  },
  "foolsthrashedcarry": {
    "address": "العريش - ابو شحته, الهرم",
    "city": "giza",
    "districtName": "الهرم",
    "image": "https://firebasestorage.googleapis.com/v0/b/shoof-e2613.appspot.com/o/MissionPhotos%2Fshops_census%2Fshops_census-blTlHy3wM1hJG4LeXO7xd9pr9Ao1-1626387045278%2Fstep1?alt=media&token=3aa1987d-c412-4675-a545-88729e1ce1ad",
    "lat": 29.997345375004013,
    "lng": 31.163595467805862,
    "name": "الكشك المدينه المنورة ",
    "placeId": "foolsthrashedcarry",
    "status": "census_collected",
    "streetName": "العريش - ابو شحته",
    "type": "kiosk",
    "unavailableMissions": [
      "chipsyfh01"
    ],
    "w3w": "fools.thrashed.carry"
  },
  "forkscheerfulgrove": {
    "address": "اليبيني هرم, الهرم",
    "city": "giza",
    "districtName": "الهرم",
    "image": "https://firebasestorage.googleapis.com/v0/b/shoof-e2613.appspot.com/o/MissionPhotos%2Fshops_census%2Fshops_census-blTlHy3wM1hJG4LeXO7xd9pr9Ao1-1626535338200%2Fstep1?alt=media&token=9d55f895-28d0-47ed-8390-735ff69e936c",
    "lat": 29.986531868535533,
    "lng": 31.15023471415043,
    "name": "سوبر ماركت لله الحمد",
    "placeId": "forkscheerfulgrove",
    "status": "census_collected",
    "streetName": "اليبيني هرم",
    "type": "kiosk",
    "w3w": "forks.cheerful.grove"
  },
  "frontlawnsshorthand - 1696531119828 - cOCM2dwObKQpmWenUDvks2M7Ypj2": {
    "address": "شرق الكوبري, العياط",
    "aislesCount": "0",
    "cashierCount": "1",
    "city": "giza",
    "crowdId": "cOCM2dwObKQpmWenUDvks2M7Ypj2",
    "districtName": "العياط",
    "employeeCount": "1",
    "image": "https://firebasestorage.googleapis.com/v0/b/shoof-e2613.appspot.com/o/MissionPhotos%2Fshops_census%2Fshops_census-cOCM2dwObKQpmWenUDvks2M7Ypj2-1696529749573%2Fstep3-1696529832169?alt=media&token=31a05388-ba2f-4fdd-a903-8b8c2b67df22",
    "lat": 29.699902792524004,
    "lng": 31.264349296689034,
    "name": "يوسف",
    "placeId": "frontlawnsshorthand - 1696531119828 - cOCM2dwObKQpmWenUDvks2M7Ypj2",
    "status": "census_collected",
    "streetName": "شرق الكوبري",
    "type": "kiosk",
    "unavailableMissions": [
      "coca-price-monitor-01"
    ],
    "w3w": "front.lawns.shorthand"
  },
  "garagesresultushering": {
    "address": "الحرية , امبابه ",
    "city": "giza",
    "districtName": "امبابه ",
    "image": "https://firebasestorage.googleapis.com/v0/b/shoof-e2613.appspot.com/o/MissionPhotos%2Fshops_census%2Fshops_census-VhuS8TSZxHRNSwUnv0w40IpZXP83-1626395592152%2Fstep1?alt=media&token=0b6cf662-1844-4a0f-b313-077cf7faa6c9",
    "lat": 30.07203000210583,
    "lng": 31.211449429392815,
    "name": "نجمة الحرية ",
    "placeId": "garagesresultushering",
    "status": "census_collected",
    "streetName": "الحرية ",
    "type": "kiosk",
    "unavailableMissions": [
      "karate01",
      "chipsyfh01",
      "coca-price-monitor-01",
      "coca-price-monitor-01"
    ],
    "w3w": "garages.result.ushering"
  },
  "gentlybrandsairstrip - 1695908631334 - WwtObazLu1R9xmUPZK4v4lqr3II2": {
    "address": "شارع الحريه , امبابه",
    "aislesCount": "0",
    "cashierCount": "1",
    "city": "giza",
    "crowdId": "WwtObazLu1R9xmUPZK4v4lqr3II2",
    "districtName": "امبابه",
    "employeeCount": "1",
    "image": "https://firebasestorage.googleapis.com/v0/b/shoof-e2613.appspot.com/o/MissionPhotos%2Fshops_census%2Fshops_census-WwtObazLu1R9xmUPZK4v4lqr3II2-1695907584913%2Fstep3-1695907617506?alt=media&token=04beffb8-3919-45e2-990f-4c281e460e36",
    "lat": 30.07221105345963,
    "lng": 31.21116947382688,
    "name": "الاسيوطي ",
    "placeId": "gentlybrandsairstrip - 1695908631334 - WwtObazLu1R9xmUPZK4v4lqr3II2",
    "status": "census_collected",
    "streetName": "شارع الحريه ",
    "type": "kiosk",
    "unavailableMissions": [
      "coca-price-monitor-01"
    ],
    "w3w": "gently.brands.airstrip"
  },
  "glovessamplerspuzzled": {
    "address": "بشتيل, امبابة ",
    "city": "giza",
    "districtName": "امبابة ",
    "image": "https://firebasestorage.googleapis.com/v0/b/shoof-e2613.appspot.com/o/MissionPhotos%2Fshops_census%2Fshops_census-AcJMbMOJAbTzh9sad4GCbXjcsPl2-1626709797079%2Fstep1?alt=media&token=7f80878e-3cac-46d9-a982-4b1c9248b691",
    "lat": 30.084282427230267,
    "lng": 31.191710382699966,
    "name": "الميدان",
    "placeId": "glovessamplerspuzzled",
    "status": "census_collected",
    "streetName": "بشتيل",
    "type": "kiosk",
    "w3w": "gloves.samplers.puzzled"
  },
  "goaloutboardtabs": {
    "address": "ترعة السواحل, امبابه",
    "city": "giza",
    "districtName": "امبابه",
    "image": "https://firebasestorage.googleapis.com/v0/b/shoof-e2613.appspot.com/o/MissionPhotos%2Fshops_census%2Fshops_census-QeJQ466RAhfo0lGsJM1cA0fASkz1-1626103275506%2Fstep1?alt=media&token=71b0b557-ac4e-4302-8b5e-d19895c2eef2",
    "lat": 30.07172911955599,
    "lng": 31.209216825664043,
    "name": "نجمة كريم",
    "placeId": "goaloutboardtabs",
    "status": "census_collected",
    "streetName": "ترعة السواحل",
    "type": "kiosk",
    "unavailableMissions": [
      "karate01",
      "coca-price-monitor-01"
    ],
    "w3w": "goal.outboard.tabs"
  },
  "gogglefasteningfreely - 1695403273167 - JjF0QjAk3iSyd0QAbNJc6WNRa4E3": {
    "address": "مصر اسيوط السريع , مزغونه ",
    "aislesCount": "0",
    "cashierCount": "1",
    "city": "giza",
    "crowdId": "JjF0QjAk3iSyd0QAbNJc6WNRa4E3",
    "districtName": "مزغونه ",
    "employeeCount": 2,
    "image": "https://firebasestorage.googleapis.com/v0/b/shoof-e2613.appspot.com/o/MissionPhotos%2Fshops_census%2Fshops_census-JjF0QjAk3iSyd0QAbNJc6WNRa4E3-1695400441843%2Fstep3-1695400517522?alt=media&token=f0d36e63-a8c0-48f6-9b5a-9863d19fbe12",
    "lat": 29.748254536900834,
    "lng": 31.26196682453155,
    "name": "بيبسي",
    "placeId": "gogglefasteningfreely - 1695403273167 - JjF0QjAk3iSyd0QAbNJc6WNRa4E3",
    "status": "census_collected",
    "streetName": "مصر اسيوط السريع ",
    "type": "kiosk",
    "w3w": "goggle.fastening.freely"
  },
  "grewperiodreflector": {
    "address": "نادي امبابه الرياضي, المنيره ",
    "city": "giza",
    "districtName": "المنيره ",
    "image": "https://firebasestorage.googleapis.com/v0/b/shoof-e2613.appspot.com/o/MissionPhotos%2Fshops_census%2Fshops_census-VhuS8TSZxHRNSwUnv0w40IpZXP83-1626808952767%2Fstep1?alt=media&token=13287fab-ffa1-45d4-b630-e137acc6b788",
    "lat": 30.084567605669168,
    "lng": 31.216419897973537,
    "name": "المتوكل",
    "placeId": "grewperiodreflector",
    "status": "census_collected",
    "streetName": "نادي امبابه الرياضي",
    "type": "kiosk",
    "unavailableMissions": [
      "karate01",
      "coca-price-monitor-01"
    ],
    "w3w": "grew.period.reflector"
  },
  "grinsnagsbelow - 1695940891829 - iWNyMiU595fP7XDJ9auVu6w58dv1": {
    "address": "اول الهرم, الجيزه ",
    "aislesCount": "1",
    "cashierCount": "1",
    "city": "giza",
    "crowdId": "iWNyMiU595fP7XDJ9auVu6w58dv1",
    "districtName": "الجيزه ",
    "employeeCount": "1",
    "image": "https://firebasestorage.googleapis.com/v0/b/shoof-e2613.appspot.com/o/MissionPhotos%2Fshops_census%2Fshops_census-iWNyMiU595fP7XDJ9auVu6w58dv1-1695937941237%2Fstep3-1695938049701?alt=media&token=12f91469-8b59-4395-b336-9ed4eea183db",
    "lat": 30.01427020235445,
    "lng": 31.20945855975151,
    "name": "الشهيد مصطفى عيد ",
    "placeId": "grinsnagsbelow - 1695940891829 - iWNyMiU595fP7XDJ9auVu6w58dv1",
    "status": "census_collected",
    "streetName": "اول الهرم",
    "type": "kiosk",
    "unavailableMissions": [
      "coca-price-monitor-01"
    ],
    "w3w": "grins.nags.below"
  },
  "guidebooklawsnoted - 1696434120566 - SUzfm9ooaUQUF4UmLPEfKI9CFgL2": {
    "address": "شارع الصاروخ , الجيزة ",
    "aislesCount": "1",
    "cashierCount": "1",
    "city": "giza",
    "crowdId": "SUzfm9ooaUQUF4UmLPEfKI9CFgL2",
    "districtName": "الجيزة ",
    "employeeCount": "1",
    "image": "https://firebasestorage.googleapis.com/v0/b/shoof-e2613.appspot.com/o/MissionPhotos%2Fshops_census%2Fshops_census-SUzfm9ooaUQUF4UmLPEfKI9CFgL2-1696428943983%2Fstep3-1696429082675?alt=media&token=fad7df8d-8a2e-4e80-9331-932260ee2d49",
    "lat": 30.014540486072192,
    "lng": 31.20807252824306,
    "name": "الوفاء ",
    "placeId": "guidebooklawsnoted - 1696434120566 - SUzfm9ooaUQUF4UmLPEfKI9CFgL2",
    "status": "census_collected",
    "streetName": "شارع الصاروخ ",
    "type": "kiosk",
    "w3w": "guidebook.laws.noted"
  },
  "hardbackpleatins": {
    "address": "مسجد الصحابه, الدقى",
    "aislesCount": "0",
    "cashierCount": "1",
    "city": "giza",
    "crowdId": "lV4If2tunWRyuvYGTJdHGgQ4pNN2",
    "districtName": "الدقى",
    "employeeCount": "1",
    "image": "https://firebasestorage.googleapis.com/v0/b/shoof-e2613.appspot.com/o/MissionPhotos%2Fshops_census%2Fshops_census-lV4If2tunWRyuvYGTJdHGgQ4pNN2-1645356321275%2Fstep3-1645356367508?alt=media&token=eeb38f4e-8198-4f81-bc22-951fe2b9d773",
    "lat": 30.03953926986518,
    "lng": 31.2017160281539,
    "name": "الصحابة",
    "placeId": "hardbackpleatins",
    "status": "census_collected",
    "streetName": "مسجد الصحابه",
    "type": "kiosk",
    "unavailableMissions": [
      "coca-price-monitor-kiosks"
    ],
    "w3w": "hardback.plea.tins"
  },
  "headlightdizzinessfreshen": {
    "address": "نادي امبابه الرياضي, المنيره ",
    "city": "giza",
    "districtName": "المنيره ",
    "image": "https://firebasestorage.googleapis.com/v0/b/shoof-e2613.appspot.com/o/MissionPhotos%2Fshops_census%2Fshops_census-VhuS8TSZxHRNSwUnv0w40IpZXP83-1626808534279%2Fstep1?alt=media&token=5f83b75c-2756-46fb-b6cc-106fa60bc6cf",
    "lat": 30.084279236012154,
    "lng": 31.21613558381796,
    "name": "الارزاق بالله",
    "placeId": "headlightdizzinessfreshen",
    "status": "census_collected",
    "streetName": "نادي امبابه الرياضي",
    "type": "kiosk",
    "unavailableMissions": [
      "karate01"
    ],
    "w3w": "headlight.dizziness.freshen"
  },
  "innovatorincensedcook": {
    "address": "الهرم مريوطيه , الهرم",
    "city": "giza",
    "districtName": "الهرم",
    "image": "https://firebasestorage.googleapis.com/v0/b/shoof-e2613.appspot.com/o/MissionPhotos%2Fshops_census%2Fshops_census-blTlHy3wM1hJG4LeXO7xd9pr9Ao1-1626541200941%2Fstep1?alt=media&token=72c2afce-e08d-43fd-bc35-cdbe55d29db1",
    "lat": 29.991634013442795,
    "lng": 31.14916518330574,
    "name": "كشك افندينا ",
    "placeId": "innovatorincensedcook",
    "status": "census_collected",
    "streetName": "الهرم مريوطيه ",
    "type": "kiosk",
    "w3w": "innovator.incensed.cook"
  },
  "inventorsdecimalssunblock": {
    "address": "شارع مصدق, الدقى",
    "aislesCount": "0",
    "cashierCount": "1",
    "city": "giza",
    "crowdId": "lV4If2tunWRyuvYGTJdHGgQ4pNN2",
    "districtName": "الدقى",
    "employeeCount": "1",
    "image": "https://firebasestorage.googleapis.com/v0/b/shoof-e2613.appspot.com/o/MissionPhotos%2Fshops_census%2Fshops_census-lV4If2tunWRyuvYGTJdHGgQ4pNN2-1645357242486%2Fstep3-1645357281214?alt=media&token=eff2c1fd-3448-4a70-be8c-fd9dbc6f2982",
    "lat": 30.039046437912692,
    "lng": 31.203402802348137,
    "name": "ابومهاب",
    "placeId": "inventorsdecimalssunblock",
    "status": "census_collected",
    "streetName": "شارع مصدق",
    "type": "kiosk",
    "w3w": "inventors.decimals.sunblock"
  },
  "jazzyhypocriteobtain": {
    "address": "شارع مصدق, الدقى",
    "aislesCount": "0",
    "cashierCount": "1",
    "city": "giza",
    "crowdId": "lV4If2tunWRyuvYGTJdHGgQ4pNN2",
    "districtName": "الدقى",
    "employeeCount": "1",
    "image": "https://firebasestorage.googleapis.com/v0/b/shoof-e2613.appspot.com/o/MissionPhotos%2Fshops_census%2Fshops_census-lV4If2tunWRyuvYGTJdHGgQ4pNN2-1645357776603%2Fstep3-1645357831438?alt=media&token=b123ffd6-a36c-4814-848b-3701f34ddc5b",
    "lat": 30.040689491793156,
    "lng": 31.2078445404768,
    "name": "مصطفى",
    "placeId": "jazzyhypocriteobtain",
    "status": "census_collected",
    "streetName": "شارع مصدق",
    "type": "kiosk",
    "w3w": "jazzy.hypocrite.obtain"
  },
  "jazzyunclevalley": {
    "address": "محمود سليم, الوحدة ",
    "city": "giza",
    "districtName": "الوحدة ",
    "image": "https://firebasestorage.googleapis.com/v0/b/shoof-e2613.appspot.com/o/MissionPhotos%2Fshops_census%2Fshops_census-VhuS8TSZxHRNSwUnv0w40IpZXP83-1626809613512%2Fstep1?alt=media&token=63595223-f5f2-448e-a9de-fdb934c8562c",
    "lat": 30.086896870594483,
    "lng": 31.216769255697727,
    "name": "الصحافة ",
    "placeId": "jazzyunclevalley",
    "status": "census_collected",
    "streetName": "محمود سليم",
    "type": "kiosk",
    "unavailableMissions": [
      "karate01",
      "coca-price-monitor-01"
    ],
    "w3w": "jazzy.uncle.valley"
  },
  "lattersubtitleoptions": {
    "address": "فيصل , مريوطيه ",
    "city": "giza",
    "districtName": "مريوطيه ",
    "image": "https://firebasestorage.googleapis.com/v0/b/shoof-e2613.appspot.com/o/MissionPhotos%2Fshops_census%2Fshops_census-blTlHy3wM1hJG4LeXO7xd9pr9Ao1-1626540361199%2Fstep1?alt=media&token=c2053c15-072c-426b-8504-55121ef96273",
    "lat": 29.99389054723108,
    "lng": 31.146818920969963,
    "name": "كشك جنات ",
    "placeId": "lattersubtitleoptions",
    "status": "census_collected",
    "streetName": "فيصل ",
    "type": "kiosk",
    "w3w": "latter.subtitle.options"
  },
  "loosegrinderscrisis - 1694950457308 - F3VbiFHBBjN899tjIxKSk7RulzH2": {
    "address": "مكه, الحي السابع",
    "aislesCount": "0",
    "cashierCount": "1",
    "city": "giza",
    "crowdId": "F3VbiFHBBjN899tjIxKSk7RulzH2",
    "districtName": "الحي السابع",
    "employeeCount": "1",
    "image": "https://firebasestorage.googleapis.com/v0/b/shoof-e2613.appspot.com/o/MissionPhotos%2Fshops_census%2Fshops_census-F3VbiFHBBjN899tjIxKSk7RulzH2-1694942374462%2Fstep3-1694942400697?alt=media&token=5cd50e86-094b-45bb-bef8-a44605be351c",
    "lat": 29.981536042575655,
    "lng": 30.9413130953908,
    "name": "كشك المرينه",
    "placeId": "loosegrinderscrisis - 1694950457308 - F3VbiFHBBjN899tjIxKSk7RulzH2",
    "status": "census_collected",
    "streetName": "مكه",
    "type": "kiosk",
    "w3w": "loose.grinders.crisis"
  },
  "mindsshutteredinferior": {
    "address": "ذكي مطر, المنيره _اول ش ذكي مطر",
    "city": "giza",
    "districtName": "المنيره _اول ش ذكي مطر",
    "image": "https://firebasestorage.googleapis.com/v0/b/shoof-e2613.appspot.com/o/MissionPhotos%2Fshops_census%2Fshops_census-VhuS8TSZxHRNSwUnv0w40IpZXP83-1626808434615%2Fstep1?alt=media&token=0029c3ef-4afe-4031-9648-f63d94e85ff2",
    "lat": 30.0843682999698,
    "lng": 31.215834841132164,
    "name": "موحه",
    "placeId": "mindsshutteredinferior",
    "status": "census_collected",
    "streetName": "ذكي مطر",
    "type": "kiosk",
    "unavailableMissions": [
      "karate01",
      "coca-price-monitor-01"
    ],
    "w3w": "minds.shuttered.inferior"
  },
  "minusmessymessy": {
    "address": "الشهيد علي الجمال, الجزيرة _امام مسجد ناصر ",
    "city": "giza",
    "districtName": "الجزيرة _امام مسجد ناصر ",
    "image": "https://firebasestorage.googleapis.com/v0/b/shoof-e2613.appspot.com/o/MissionPhotos%2Fshops_census%2Fshops_census-VhuS8TSZxHRNSwUnv0w40IpZXP83-1626805316352%2Fstep1?alt=media&token=523e8025-43ac-49ad-83a8-d9642a540ed2",
    "lat": 30.074795351334593,
    "lng": 31.214468590915203,
    "name": "الارزاق بالله",
    "placeId": "minusmessymessy",
    "status": "census_collected",
    "streetName": "الشهيد علي الجمال",
    "type": "kiosk",
    "unavailableMissions": [
      "karate01",
      "chipsyfh01"
    ],
    "w3w": "minus.messy.messy"
  },
  "mocklistenspelling": {
    "address": "المنيره الرئيسي, المنيره ",
    "city": "giza",
    "districtName": "المنيره ",
    "image": "https://firebasestorage.googleapis.com/v0/b/shoof-e2613.appspot.com/o/MissionPhotos%2Fshops_census%2Fshops_census-VhuS8TSZxHRNSwUnv0w40IpZXP83-1626808173717%2Fstep1?alt=media&token=c5d8d076-dcec-48c3-887b-abc760dca752",
    "lat": 30.083695821589526,
    "lng": 31.215606853365898,
    "name": "بسم الله ما شاء الله ",
    "placeId": "mocklistenspelling",
    "status": "census_collected",
    "streetName": "المنيره الرئيسي",
    "type": "kiosk",
    "unavailableMissions": [
      "karate01",
      "coca-price-monitor-kiosks",
      "coca-price-monitor-01"
    ],
    "w3w": "mock.listen.spelling"
  },
  "mouthsswimsutter - 1693920132044 - BLDMu858KgWsHghXh3PKHEmn9sw2": {
    "address": "السويقه, كفر زهران ",
    "aislesCount": "1",
    "cashierCount": "1",
    "city": "giza",
    "crowdId": "BLDMu858KgWsHghXh3PKHEmn9sw2",
    "districtName": "كفر زهران ",
    "employeeCount": 2,
    "image": "https://firebasestorage.googleapis.com/v0/b/shoof-e2613.appspot.com/o/MissionPhotos%2Fshops_census%2Fshops_census-BLDMu858KgWsHghXh3PKHEmn9sw2-1693923261317%2Fstep3-1693923351466?alt=media&token=90e35c5f-df69-4a3a-85fb-0fa0314be4f5",
    "lat": 29.810089460115936,
    "lng": 31.267191097140312,
    "name": "مولانا",
    "placeId": "mouthsswimsutter - 1693920132044 - BLDMu858KgWsHghXh3PKHEmn9sw2",
    "status": "census_collected",
    "streetName": "السويقه",
    "type": "kiosk",
    "w3w": "mouths.swims.utter"
  },
  "narrativemowerstrenchcoat - 1696744473455 - mkh83uu6FedueHcj8UbNWyQVITn1": {
    "address": "الحيش, العياط",
    "aislesCount": "0",
    "cashierCount": "1",
    "city": "giza",
    "crowdId": "mkh83uu6FedueHcj8UbNWyQVITn1",
    "districtName": "العياط",
    "employeeCount": 2,
    "image": "https://firebasestorage.googleapis.com/v0/b/shoof-e2613.appspot.com/o/MissionPhotos%2Fshops_census%2Fshops_census-mkh83uu6FedueHcj8UbNWyQVITn1-1696747885934%2Fstep3-1696747972956?alt=media&token=7c5aee59-4038-4f99-b0ae-bdf53c3cb0c9",
    "lat": 29.626700404067098,
    "lng": 31.25915251672268,
    "name": "كسك بدون اسم",
    "placeId": "narrativemowerstrenchcoat - 1696744473455 - mkh83uu6FedueHcj8UbNWyQVITn1",
    "status": "census_collected",
    "streetName": "الحيش",
    "type": "kiosk",
    "w3w": "narrative.mowers.trenchcoat"
  },
  "neaterpuzzleddriveways": {
    "address": "مشيل باخوم, الدقى",
    "aislesCount": "0",
    "cashierCount": "1",
    "city": "giza",
    "crowdId": "lV4If2tunWRyuvYGTJdHGgQ4pNN2",
    "districtName": "الدقى",
    "employeeCount": 2,
    "image": "https://firebasestorage.googleapis.com/v0/b/shoof-e2613.appspot.com/o/MissionPhotos%2Fshops_census%2Fshops_census-lV4If2tunWRyuvYGTJdHGgQ4pNN2-1645013772809%2Fstep3-1645013820509?alt=media&token=357f7214-ff92-47c9-b5e1-6c5af45826b7",
    "lat": 30.041950860367816,
    "lng": 31.20515294373035,
    "name": "وادى القمر",
    "placeId": "neaterpuzzleddriveways",
    "status": "census_collected",
    "streetName": "مشيل باخوم",
    "type": "kiosk",
    "w3w": "neater.puzzled.driveways"
  },
  "necklaceriskystub": {
    "address": "الفريق عبد المنعم رياض , العجوزة ",
    "city": "giza",
    "districtName": "العجوزة ",
    "image": "https://firebasestorage.googleapis.com/v0/b/shoof-e2613.appspot.com/o/MissionPhotos%2Fshops_census%2Fshops_census-VhuS8TSZxHRNSwUnv0w40IpZXP83-1626711324900%2Fstep1?alt=media&token=aa4210a1-c906-4eb8-9bdc-57f51ba2dd43",
    "lat": 30.05423864063575,
    "lng": 31.20931103825569,
    "name": "جراند موتورز",
    "placeId": "necklaceriskystub",
    "status": "census_collected",
    "streetName": "الفريق عبد المنعم رياض ",
    "type": "kiosk",
    "w3w": "necklace.risky.stub"
  },
  "onlinedepthcuter - 1696421423270 - emk8N1sXapNil2mjHVOylF0D6c12": {
    "address": "ش المستفشي , البدرشين ",
    "aislesCount": "0",
    "cashierCount": "1",
    "city": "giza",
    "crowdId": "emk8N1sXapNil2mjHVOylF0D6c12",
    "districtName": "البدرشين ",
    "employeeCount": "1",
    "image": "https://firebasestorage.googleapis.com/v0/b/shoof-e2613.appspot.com/o/MissionPhotos%2Fshops_census%2Fshops_census-emk8N1sXapNil2mjHVOylF0D6c12-1696420842508%2Fstep3-1696420901615?alt=media&token=7c8a945d-bcf6-444a-9c2e-cdc5a54850cb",
    "lat": 29.85317873776146,
    "lng": 31.278135180473328,
    "name": "كشك",
    "placeId": "onlinedepthcuter - 1696421423270 - emk8N1sXapNil2mjHVOylF0D6c12",
    "status": "census_collected",
    "streetName": "ش المستفشي ",
    "type": "kiosk",
    "w3w": "online.depth.cuter"
  },
  "operationflamingocuff - 1696412047173 - mkh83uu6FedueHcj8UbNWyQVITn1": {
    "address": "الجيش, العياط",
    "aislesCount": "1",
    "cashierCount": "1",
    "city": "giza",
    "crowdId": "mkh83uu6FedueHcj8UbNWyQVITn1",
    "districtName": "العياط",
    "employeeCount": 2,
    "image": "https://firebasestorage.googleapis.com/v0/b/shoof-e2613.appspot.com/o/MissionPhotos%2Fshops_census%2Fshops_census-mkh83uu6FedueHcj8UbNWyQVITn1-1696415422082%2Fstep3-1696415477193?alt=media&token=33c9e684-31a2-4584-85ec-a3d04a97e737",
    "lat": 29.619321654093337,
    "lng": 31.25489618629217,
    "name": "عصائر الارزاق بالله",
    "placeId": "operationflamingocuff - 1696412047173 - mkh83uu6FedueHcj8UbNWyQVITn1",
    "status": "census_collected",
    "streetName": "الجيش",
    "type": "kiosk",
    "unavailableMissions": [
      "coca-price-monitor-01"
    ],
    "w3w": "operation.flamingo.cuff"
  },
  "optsradiatedbarmaid - 1697009557434 - VRu7PfcbQ5VvgsFiw3Xf5sXyub03": {
    "address": "شارع كشك عبده, الجيزه اكتوبر الحي العاشر",
    "aislesCount": "1",
    "cashierCount": "1",
    "city": "giza",
    "crowdId": "VRu7PfcbQ5VvgsFiw3Xf5sXyub03",
    "districtName": "الجيزه اكتوبر الحي العاشر",
    "employeeCount": "2-5",
    "image": "https://firebasestorage.googleapis.com/v0/b/shoof-e2613.appspot.com/o/MissionPhotos%2Fshops_census%2Fshops_census-VRu7PfcbQ5VvgsFiw3Xf5sXyub03-1697005917761%2Fstep3-1697006050147?alt=media&token=377cc8b9-566b-4dda-9b0b-efe042bb80c4",
    "lat": 29.964188820913797,
    "lng": 30.92072512954473,
    "name": "كشك عبدة",
    "placeId": "optsradiatedbarmaid - 1697009557434 - VRu7PfcbQ5VvgsFiw3Xf5sXyub03",
    "status": "census_collected",
    "streetName": "شارع كشك عبده",
    "type": "kiosk",
    "w3w": "opts.radiated.barmaid"
  },
  "originsthinnestweekends": {
    "address": "شارع نادى الصيد, الدقى",
    "aislesCount": "0",
    "cashierCount": "1",
    "city": "giza",
    "crowdId": "lV4If2tunWRyuvYGTJdHGgQ4pNN2",
    "districtName": "الدقى",
    "employeeCount": "1",
    "image": "https://firebasestorage.googleapis.com/v0/b/shoof-e2613.appspot.com/o/MissionPhotos%2Fshops_census%2Fshops_census-lV4If2tunWRyuvYGTJdHGgQ4pNN2-1645355606850%2Fstep3-1645355648202?alt=media&token=48aa4c60-3dd8-483e-94e1-30676b85ca6e",
    "lat": 30.043289704564124,
    "lng": 31.200466118752956,
    "name": "نادى الصيد",
    "placeId": "originsthinnestweekends",
    "status": "census_collected",
    "streetName": "شارع نادى الصيد",
    "type": "kiosk",
    "unavailableMissions": [
      "coca-price-monitor-kiosks"
    ],
    "w3w": "origins.thinnest.weekends"
  },
  "otterscollideexotic": {
    "address": "الشهيد علي الجمال, الجزيرة ",
    "city": "giza",
    "districtName": "الجزيرة ",
    "image": "https://firebasestorage.googleapis.com/v0/b/shoof-e2613.appspot.com/o/MissionPhotos%2Fshops_census%2Fshops_census-VhuS8TSZxHRNSwUnv0w40IpZXP83-1626805482022%2Fstep1?alt=media&token=db7c3d9a-105e-444d-8d49-b8439b51ba54",
    "lat": 30.07465463403446,
    "lng": 31.21490377932787,
    "name": "عباد الرحمن ",
    "placeId": "otterscollideexotic",
    "status": "census_collected",
    "streetName": "الشهيد علي الجمال",
    "type": "kiosk",
    "unavailableMissions": [
      "karate01",
      "coca-price-monitor-01"
    ],
    "w3w": "otters.collide.exotic"
  },
  "overtstruttedadjusted": {
    "address": "ابن خلدون , ميدان ابن خلدون _عمارات البترول ",
    "city": "giza",
    "districtName": "ميدان ابن خلدون _عمارات البترول ",
    "image": "https://firebasestorage.googleapis.com/v0/b/shoof-e2613.appspot.com/o/MissionPhotos%2Fshops_census%2Fshops_census-VhuS8TSZxHRNSwUnv0w40IpZXP83-1626619926379%2Fstep1?alt=media&token=aa294053-daac-4a7c-beee-d418033a2641",
    "lat": 30.065603915261253,
    "lng": 31.20887115597725,
    "name": "كشك ابن خلدون ",
    "placeId": "overtstruttedadjusted",
    "status": "census_collected",
    "streetName": "ابن خلدون ",
    "type": "kiosk",
    "unavailableMissions": [
      "karate01"
    ],
    "w3w": "overt.strutted.adjusted"
  },
  "paintersdripsvariously": {
    "address": "محمد رشدي, الكيت كات ",
    "city": "giza",
    "districtName": "الكيت كات ",
    "image": "https://firebasestorage.googleapis.com/v0/b/shoof-e2613.appspot.com/o/MissionPhotos%2Fshops_census%2Fshops_census-VhuS8TSZxHRNSwUnv0w40IpZXP83-1626704757596%2Fstep1?alt=media&token=d7a78303-3240-4612-8581-bdd948908557",
    "lat": 30.065079874969165,
    "lng": 31.21283646672964,
    "name": "العقاد",
    "placeId": "paintersdripsvariously",
    "status": "census_collected",
    "streetName": "محمد رشدي",
    "type": "kiosk",
    "unavailableMissions": [
      "karate01"
    ],
    "w3w": "painters.drips.variously"
  },
  "pairingscompliesfunnels": {
    "address": "الهرم, المريوطيه",
    "city": "giza",
    "districtName": "المريوطيه",
    "image": "https://firebasestorage.googleapis.com/v0/b/shoof-e2613.appspot.com/o/MissionPhotos%2Fshops_census%2Fshops_census-jRQTnx4bx6Zbu2OVW4gF4S1gZ592-1626541932754%2Fstep1?alt=media&token=0eaeeda2-7738-4847-b925-ac5bd94edcfc",
    "lat": 29.9899297,
    "lng": 31.149799599999994,
    "name": "ماركت",
    "placeId": "pairingscompliesfunnels",
    "status": "census_collected",
    "streetName": "الهرم",
    "type": "kiosk",
    "w3w": "pairings.complies.funnels"
  },
  "pebblesjottingcuddling": {
    "address": "المنيره الرئيسي, المنيره ",
    "city": "giza",
    "districtName": "المنيره ",
    "image": "https://firebasestorage.googleapis.com/v0/b/shoof-e2613.appspot.com/o/MissionPhotos%2Fshops_census%2Fshops_census-VhuS8TSZxHRNSwUnv0w40IpZXP83-1626808281526%2Fstep1?alt=media&token=0d8a2d2c-8239-4f7e-9811-5d2692d6d16c",
    "lat": 30.08294645828417,
    "lng": 31.215342320501804,
    "name": "كشك كريم",
    "placeId": "pebblesjottingcuddling",
    "status": "census_collected",
    "streetName": "المنيره الرئيسي",
    "type": "kiosk",
    "unavailableMissions": [
      "karate01",
      "coca-price-monitor-01"
    ],
    "w3w": "pebbles.jotting.cuddling"
  },
  "permitsnailssoggy": {
    "address": "عز الدين عمرو, هرم مريوطيه ",
    "city": "giza",
    "districtName": "هرم مريوطيه ",
    "image": "https://firebasestorage.googleapis.com/v0/b/shoof-e2613.appspot.com/o/MissionPhotos%2Fshops_census%2Fshops_census-blTlHy3wM1hJG4LeXO7xd9pr9Ao1-1626705796829%2Fstep1?alt=media&token=31ab9248-3579-4805-ab37-a7bcf63c5e45",
    "lat": 29.990335996891552,
    "lng": 31.161965020000935,
    "name": "ميني ماركت النعمه",
    "placeId": "permitsnailssoggy",
    "status": "census_collected",
    "streetName": "عز الدين عمرو",
    "type": "kiosk",
    "w3w": "permit.snails.soggy"
  },
  "plotstwinklingstepping - 1696850967101 - mkh83uu6FedueHcj8UbNWyQVITn1": {
    "address": "شكرى القواتلى , العياط",
    "aislesCount": "0",
    "cashierCount": "1",
    "city": "giza",
    "crowdId": "mkh83uu6FedueHcj8UbNWyQVITn1",
    "districtName": "العياط",
    "employeeCount": 2,
    "image": "https://firebasestorage.googleapis.com/v0/b/shoof-e2613.appspot.com/o/MissionPhotos%2Fshops_census%2Fshops_census-mkh83uu6FedueHcj8UbNWyQVITn1-1696854426398%2Fstep3-1696854468627?alt=media&token=1ac9a5d1-5ac1-426c-a760-2b9b3a559138",
    "lat": 29.619891758076903,
    "lng": 31.25610653311014,
    "name": "بدون اسم",
    "placeId": "plotstwinklingstepping - 1696850967101 - mkh83uu6FedueHcj8UbNWyQVITn1",
    "status": "census_collected",
    "streetName": "شكرى القواتلى ",
    "type": "kiosk",
    "w3w": "plots.twinkling.stepping"
  },
  "plumpsandedsuits - 1696764904390 - JjF0QjAk3iSyd0QAbNJc6WNRa4E3": {
    "address": "دهشور الزاويه, دهشور",
    "aislesCount": "1",
    "cashierCount": "1",
    "city": "giza",
    "crowdId": "JjF0QjAk3iSyd0QAbNJc6WNRa4E3",
    "districtName": "دهشور",
    "employeeCount": 2,
    "image": "https://firebasestorage.googleapis.com/v0/b/shoof-e2613.appspot.com/o/MissionPhotos%2Fshops_census%2Fshops_census-JjF0QjAk3iSyd0QAbNJc6WNRa4E3-1696763608761%2Fstep3-1696763683121?alt=media&token=0f3feecc-ff3c-4392-8afe-4591df53993c",
    "lat": 29.7491278073095,
    "lng": 31.23903326690197,
    "name": "هايبر عبده",
    "placeId": "plumpsandedsuits - 1696764904390 - JjF0QjAk3iSyd0QAbNJc6WNRa4E3",
    "status": "census_collected",
    "streetName": "دهشور الزاويه",
    "type": "kiosk",
    "unavailableMissions": [
      "coca-price-monitor-01"
    ],
    "w3w": "plump.sanded.suits"
  },
  "polopausingdancer - 1695909182288 - WwtObazLu1R9xmUPZK4v4lqr3II2": {
    "address": "شارع الحريه , امبابة ",
    "aislesCount": "0",
    "cashierCount": "1",
    "city": "giza",
    "crowdId": "WwtObazLu1R9xmUPZK4v4lqr3II2",
    "districtName": "امبابة ",
    "employeeCount": "1",
    "image": "https://firebasestorage.googleapis.com/v0/b/shoof-e2613.appspot.com/o/MissionPhotos%2Fshops_census%2Fshops_census-WwtObazLu1R9xmUPZK4v4lqr3II2-1695907989311%2Fstep3-1695908045623?alt=media&token=5e1d918b-c6da-430d-8c26-c32961f86c41",
    "lat": 30.072149542459922,
    "lng": 31.211323365569115,
    "name": "نجمة الحرية٢",
    "placeId": "polopausingdancer - 1695909182288 - WwtObazLu1R9xmUPZK4v4lqr3II2",
    "status": "census_collected",
    "streetName": "شارع الحريه ",
    "type": "kiosk",
    "unavailableMissions": [
      "coca-price-monitor-01"
    ],
    "w3w": "polo.pausing.dancer"
  },
  "professedcringescreamed": {
    "address": "حسن امين, عمارات البترول ",
    "city": "giza",
    "districtName": "عمارات البترول ",
    "image": "https://firebasestorage.googleapis.com/v0/b/shoof-e2613.appspot.com/o/MissionPhotos%2Fshops_census%2Fshops_census-VhuS8TSZxHRNSwUnv0w40IpZXP83-1626619215152%2Fstep1?alt=media&token=232bcd9d-f245-4e0d-b904-5123150469b9",
    "lat": 30.065205227052303,
    "lng": 31.20670560747385,
    "name": "كوكاكولا (سور المستشفي",
    "placeId": "professedcringescreamed",
    "status": "census_collected",
    "streetName": "حسن امين",
    "type": "kiosk",
    "unavailableMissions": [
      "karate01"
    ],
    "w3w": "professed.cringes.creamed"
  },
  "questionsextensivefounding - 1696847459040 - mkh83uu6FedueHcj8UbNWyQVITn1": {
    "address": "الجيش, العياط",
    "aislesCount": "0",
    "cashierCount": "1",
    "city": "giza",
    "crowdId": "mkh83uu6FedueHcj8UbNWyQVITn1",
    "districtName": "العياط",
    "employeeCount": 2,
    "image": "https://firebasestorage.googleapis.com/v0/b/shoof-e2613.appspot.com/o/MissionPhotos%2Fshops_census%2Fshops_census-mkh83uu6FedueHcj8UbNWyQVITn1-1696850881394%2Fstep3-1696850968266?alt=media&token=eda6ce14-5eea-4965-83d1-0f0fb5b8a357",
    "lat": 29.615483278039676,
    "lng": 31.25287547707558,
    "name": "الخديوى",
    "placeId": "questionsextensivefounding - 1696847459040 - mkh83uu6FedueHcj8UbNWyQVITn1",
    "status": "census_collected",
    "streetName": "الجيش",
    "type": "kiosk",
    "unavailableMissions": [
      "coca-price-monitor-01"
    ],
    "w3w": "questions.extensive.founding"
  },
  "quilteducatedmixes": {
    "address": "فيصل مريوطيه , فيصل",
    "city": "giza",
    "districtName": "فيصل",
    "image": "https://firebasestorage.googleapis.com/v0/b/shoof-e2613.appspot.com/o/MissionPhotos%2Fshops_census%2Fshops_census-blTlHy3wM1hJG4LeXO7xd9pr9Ao1-1626537648213%2Fstep1?alt=media&token=442e1edf-a0f2-4bcf-a07b-086af607bd10",
    "lat": 29.99283909191622,
    "lng": 31.145960949361324,
    "name": "كشك حماده تحت كشري حماده",
    "placeId": "quilteducatedmixes",
    "status": "census_collected",
    "streetName": "فيصل مريوطيه ",
    "type": "kiosk",
    "w3w": "quilt.educated.mixes"
  },
  "racedsqueaksbaguette": {
    "address": "ناصيه على بن أبى طالب , ارض الجمعيه ",
    "city": "giza",
    "districtName": "ارض الجمعيه ",
    "image": "https://firebasestorage.googleapis.com/v0/b/shoof-e2613.appspot.com/o/MissionPhotos%2Fshops_census%2Fshops_census-VhuS8TSZxHRNSwUnv0w40IpZXP83-1626812769115%2Fstep1?alt=media&token=d472955c-5bde-4996-b334-e6781b419289",
    "lat": 30.090997972557524,
    "lng": 31.219321712851524,
    "name": "ابو جبل",
    "placeId": "racedsqueaksbaguette",
    "status": "census_collected",
    "streetName": "ناصيه على بن أبى طالب ",
    "type": "kiosk",
    "unavailableMissions": [
      "karate01",
      "coca-price-monitor-01"
    ],
    "w3w": "raced.squeaks.baguette"
  },
  "rashersbreakfastweeks": {
    "address": "اللبيني, الهرم",
    "city": "giza",
    "districtName": "الهرم",
    "image": "https://firebasestorage.googleapis.com/v0/b/shoof-e2613.appspot.com/o/MissionPhotos%2Fshops_census%2Fshops_census-jRQTnx4bx6Zbu2OVW4gF4S1gZ592-1626537328538%2Fstep1?alt=media&token=5531830c-002c-438d-8946-1b86ee382f0a",
    "lat": 29.99118798550823,
    "lng": 31.147365421056747,
    "name": "كشك السلام",
    "placeId": "rashersbreakfastweeks",
    "status": "census_collected",
    "streetName": "اللبيني",
    "type": "kiosk",
    "w3w": "rashers.breakfast.weeks"
  },
  "reactionselectrictwins - 1683247665762 - vsVQG6MkRzQoqSlSMlHQvkQD7sB3": {
    "address": "اسماعيل محمد , الزمالك",
    "aislesCount": "0",
    "cashierCount": "1",
    "city": "giza",
    "crowdId": "vsVQG6MkRzQoqSlSMlHQvkQD7sB3",
    "districtName": "الزمالك",
    "employeeCount": "1",
    "image": "https://firebasestorage.googleapis.com/v0/b/shoof-e2613.appspot.com/o/MissionPhotos%2Fshops_census%2Fshops_census-vsVQG6MkRzQoqSlSMlHQvkQD7sB3-1683216113392%2Fstep3-1683216215418?alt=media&token=9dab7bbd-f97d-4e3b-bdf1-c8c28220dcb6",
    "lat": 30.065776853752073,
    "lng": 31.2156930193305,
    "name": "كشك رقم 14",
    "placeId": "reactionselectrictwins - 1683247665762 - vsVQG6MkRzQoqSlSMlHQvkQD7sB3",
    "status": "census_collected",
    "streetName": "اسماعيل محمد ",
    "type": "kiosk",
    "w3w": "reactions.electric.twins"
  },
  "reardissolveyelled - 1695053547784 - mkh83uu6FedueHcj8UbNWyQVITn1": {
    "address": "طريق مصر اسيوط الزراعى, كفر الضبعى العياط ",
    "aislesCount": "0",
    "cashierCount": "1",
    "city": "giza",
    "crowdId": "mkh83uu6FedueHcj8UbNWyQVITn1",
    "districtName": "كفر الضبعى العياط ",
    "employeeCount": 2,
    "image": "https://firebasestorage.googleapis.com/v0/b/shoof-e2613.appspot.com/o/MissionPhotos%2Fshops_census%2Fshops_census-mkh83uu6FedueHcj8UbNWyQVITn1-1695055969392%2Fstep3-1695056049686?alt=media&token=b88d7ce2-5abe-4c08-ae43-eeca17b3a9c1",
    "lat": 29.70058077761416,
    "lng": 31.263400129973885,
    "name": "بدون اسم (كشك عمرو عيد)",
    "placeId": "reardissolveyelled - 1695053547784 - mkh83uu6FedueHcj8UbNWyQVITn1",
    "status": "census_collected",
    "streetName": "طريق مصر اسيوط الزراعى",
    "type": "kiosk",
    "unavailableMissions": [
      "coca-price-monitor-01"
    ],
    "w3w": "rear.dissolve.yelled"
  },
  "reclinedpamperedrelegate": {
    "address": "محمد محمود, ارض الجمعيه ",
    "city": "giza",
    "districtName": "ارض الجمعيه ",
    "image": "https://firebasestorage.googleapis.com/v0/b/shoof-e2613.appspot.com/o/MissionPhotos%2Fshops_census%2Fshops_census-VhuS8TSZxHRNSwUnv0w40IpZXP83-1626813868380%2Fstep1?alt=media&token=385c9c38-b7d5-423a-b1c4-0759c402200f",
    "lat": 30.088493875062685,
    "lng": 31.215908601880074,
    "name": "فضل ونعمه",
    "placeId": "reclinedpamperedrelegate",
    "status": "census_collected",
    "streetName": "محمد محمود",
    "type": "kiosk",
    "unavailableMissions": [
      "karate01",
      "coca-price-monitor-01"
    ],
    "w3w": "reclined.pampered.relegate"
  },
  "reflectedbeadsnewsreel": {
    "address": "السودان, بولاق الدكرور",
    "aislesCount": "0",
    "cashierCount": "1",
    "city": "giza",
    "crowdId": "lV4If2tunWRyuvYGTJdHGgQ4pNN2",
    "districtName": "بولاق الدكرور",
    "employeeCount": "1",
    "image": "https://firebasestorage.googleapis.com/v0/b/shoof-e2613.appspot.com/o/MissionPhotos%2Fshops_census%2Fshops_census-lV4If2tunWRyuvYGTJdHGgQ4pNN2-1645352402029%2Fstep3-1645352485174?alt=media&token=a49ec467-7a88-4a41-8f5e-0916e2372866",
    "lat": 30.041486193324943,
    "lng": 31.194132417440414,
    "name": "كوكاكولا",
    "placeId": "reflectedbeadsnewsreel",
    "status": "census_collected",
    "streetName": "السودان",
    "type": "kiosk",
    "w3w": "reflected.beads.newsreel"
  },
  "remainairlinersinclined - 1696434186978 - PVZsnyHiYjX7D6LqyinIj9eDsuD2": {
    "address": "ميدان الجيزة, الجيزة",
    "aislesCount": "0",
    "cashierCount": "1",
    "city": "giza",
    "crowdId": "PVZsnyHiYjX7D6LqyinIj9eDsuD2",
    "districtName": "الجيزة",
    "employeeCount": "1",
    "image": "https://firebasestorage.googleapis.com/v0/b/shoof-e2613.appspot.com/o/MissionPhotos%2Fshops_census%2Fshops_census-PVZsnyHiYjX7D6LqyinIj9eDsuD2-1696426695350%2Fstep3-1696426777554?alt=media&token=02ed9cad-e912-4d65-8508-5ea98df3bccd",
    "lat": 30.014249880240644,
    "lng": 31.20809398591518,
    "name": "المدينة المنوره",
    "placeId": "remainairlinersinclined - 1696434186978 - PVZsnyHiYjX7D6LqyinIj9eDsuD2",
    "status": "census_collected",
    "streetName": "ميدان الجيزة",
    "type": "kiosk",
    "unavailableMissions": [
      "coca-price-monitor-01"
    ],
    "w3w": "remain.airliners.inclined"
  },
  "remaindergurglingwobbles": {
    "address": "الرشيد, المهندسين",
    "city": "giza",
    "districtName": "المهندسين",
    "image": "https://firebasestorage.googleapis.com/v0/b/shoof-e2613.appspot.com/o/MissionPhotos%2Fshops_census%2Fshops_census-QeJQ466RAhfo0lGsJM1cA0fASkz1-1626105139958%2Fstep1?alt=media&token=8c9b4159-bc90-4bc0-9646-83edc1bfee6c",
    "lat": 30.068493051041116,
    "lng": 31.205121092498302,
    "name": "فهد",
    "placeId": "remaindergurglingwobbles",
    "status": "census_collected",
    "streetName": "الرشيد",
    "type": "kiosk",
    "unavailableMissions": [
      "karate01",
      "chipsyfh01"
    ],
    "w3w": "remainder.gurgling.wobbles"
  },
  "remakingmessedintervals": {
    "address": "وزارة الزراعه, الدقى",
    "aislesCount": "0",
    "cashierCount": "1",
    "city": "giza",
    "crowdId": "lV4If2tunWRyuvYGTJdHGgQ4pNN2",
    "districtName": "الدقى",
    "employeeCount": "1",
    "image": "https://firebasestorage.googleapis.com/v0/b/shoof-e2613.appspot.com/o/MissionPhotos%2Fshops_census%2Fshops_census-lV4If2tunWRyuvYGTJdHGgQ4pNN2-1645099464556%2Fstep3-1645099530344?alt=media&token=0e4f6cb5-d704-43af-a3b8-9a2aa0b3444f",
    "lat": 30.043739851669944,
    "lng": 31.20936870574951,
    "name": "محمد",
    "placeId": "remakingmessedintervals",
    "status": "census_collected",
    "streetName": "وزارة الزراعه",
    "type": "kiosk",
    "w3w": "remaking.messed.intervals"
  },
  "remotesdealingsconstrain": {
    "address": "دكتور النبوي, العجوزة ",
    "city": "giza",
    "districtName": "العجوزة ",
    "image": "https://firebasestorage.googleapis.com/v0/b/shoof-e2613.appspot.com/o/MissionPhotos%2Fshops_census%2Fshops_census-VhuS8TSZxHRNSwUnv0w40IpZXP83-1626707284388%2Fstep1?alt=media&token=aea0883b-9b10-46c9-83ce-7438cf847d19",
    "lat": 30.06038689213835,
    "lng": 31.21129520237446,
    "name": "مكان",
    "placeId": "remotesdealingsconstrain",
    "status": "census_collected",
    "streetName": "دكتور النبوي",
    "type": "kiosk",
    "unavailableMissions": [
      "coca-price-monitor-kiosks"
    ],
    "w3w": "remotes.dealings.constrain"
  },
  "resemblesscenesfamines": {
    "address": "العلمين, الكيت كات _امام اسلحه ابو ضيف",
    "city": "giza",
    "districtName": "الكيت كات _امام اسلحه ابو ضيف",
    "image": "https://firebasestorage.googleapis.com/v0/b/shoof-e2613.appspot.com/o/MissionPhotos%2Fshops_census%2Fshops_census-VhuS8TSZxHRNSwUnv0w40IpZXP83-1626621175166%2Fstep1?alt=media&token=989b6eb0-dd7b-4f1a-a46d-7945c5a82031",
    "lat": 30.067667840989547,
    "lng": 31.2087320163846,
    "name": "ال فاروق",
    "placeId": "resemblesscenesfamines",
    "status": "census_collected",
    "streetName": "العلمين",
    "type": "kiosk",
    "unavailableMissions": [
      "chipsyfh01"
    ],
    "w3w": "resembles.scenes.famines"
  },
  "resettlespringheap": {
    "address": "شارع بشتيل, العمارة ",
    "aislesCount": "1",
    "cashierCount": "1",
    "city": "giza",
    "crowdId": "j3sXSlN5wvdvdBLkbLIaFMYBO5B2",
    "districtName": "العمارة ",
    "employeeCount": "1",
    "image": "https://firebasestorage.googleapis.com/v0/b/shoof-e2613.appspot.com/o/MissionPhotos%2Fshops_census%2Fshops_census-j3sXSlN5wvdvdBLkbLIaFMYBO5B2-1645811651745%2Fstep3-1645811691857?alt=media&token=eeb4fd15-0f3f-4a4e-8b99-f50aab390662",
    "lat": 30.076520500153237,
    "lng": 31.198952682316303,
    "name": "مقلة الحبايب ",
    "placeId": "resettlespringheap",
    "status": "census_collected",
    "streetName": "شارع بشتيل",
    "type": "kiosk",
    "w3w": "resettle.spring.heap"
  },
  "residesreservingsprinkler - 1696416900396 - mkh83uu6FedueHcj8UbNWyQVITn1": {
    "address": "الثوره, العياط",
    "aislesCount": "0",
    "cashierCount": "1",
    "city": "giza",
    "crowdId": "mkh83uu6FedueHcj8UbNWyQVITn1",
    "districtName": "العياط",
    "employeeCount": "1",
    "image": "https://firebasestorage.googleapis.com/v0/b/shoof-e2613.appspot.com/o/MissionPhotos%2Fshops_census%2Fshops_census-mkh83uu6FedueHcj8UbNWyQVITn1-1696420381785%2Fstep3-1696420412741?alt=media&token=3146479f-78c7-4822-a9e7-8427efeeef80",
    "lat": 29.622125217206563,
    "lng": 31.260643489658836,
    "name": "كشك بدون اسم",
    "placeId": "residesreservingsprinkler - 1696416900396 - mkh83uu6FedueHcj8UbNWyQVITn1",
    "status": "census_collected",
    "streetName": "الثوره",
    "type": "kiosk",
    "w3w": "resides.reserving.sprinkler"
  },
  "ridiculedcompostsfestivity": {
    "address": "الحريه, مقابل لاول ش السلام",
    "city": "giza",
    "districtName": "مقابل لاول ش السلام",
    "image": "https://firebasestorage.googleapis.com/v0/b/shoof-e2613.appspot.com/o/MissionPhotos%2Fshops_census%2Fshops_census-VhuS8TSZxHRNSwUnv0w40IpZXP83-1626622964806%2Fstep1?alt=media&token=c1a0aadb-a582-4b47-8bdb-6c957cbf11d6",
    "lat": 30.072387462152392,
    "lng": 31.210896223783493,
    "name": "شريف ميني ماركت",
    "placeId": "ridiculedcompostsfestivity",
    "status": "census_collected",
    "streetName": "الحريه",
    "type": "kiosk",
    "unavailableMissions": [
      "karate01",
      "chipsyfh01"
    ],
    "w3w": "ridiculed.composts.festivity"
  },
  "saladkilowattforgiven": {
    "address": "وزارة الزراعه, الدقى",
    "aislesCount": "0",
    "cashierCount": "1",
    "city": "giza",
    "crowdId": "lV4If2tunWRyuvYGTJdHGgQ4pNN2",
    "districtName": "الدقى",
    "employeeCount": "1",
    "image": "https://firebasestorage.googleapis.com/v0/b/shoof-e2613.appspot.com/o/MissionPhotos%2Fshops_census%2Fshops_census-lV4If2tunWRyuvYGTJdHGgQ4pNN2-1645098903061%2Fstep3-1645098957541?alt=media&token=086986aa-51fd-449b-a282-53e0b47236cd",
    "lat": 30.043576742510066,
    "lng": 31.205106005072594,
    "name": "عمادالدين",
    "placeId": "saladkilowattforgiven",
    "status": "census_collected",
    "streetName": "وزارة الزراعه",
    "type": "kiosk",
    "unavailableMissions": [
      "coca-price-monitor-kiosks"
    ],
    "w3w": "salad.kilowatt.forgiven"
  },
  "scattersrestorehurray": {
    "address": "وزارة الزراعه, الدقى",
    "aislesCount": "0",
    "cashierCount": "1",
    "city": "giza",
    "crowdId": "lV4If2tunWRyuvYGTJdHGgQ4pNN2",
    "districtName": "الدقى",
    "employeeCount": "1",
    "image": "https://firebasestorage.googleapis.com/v0/b/shoof-e2613.appspot.com/o/MissionPhotos%2Fshops_census%2Fshops_census-lV4If2tunWRyuvYGTJdHGgQ4pNN2-1645100511682%2Fstep3-1645100556450?alt=media&token=60413a7d-9a39-4c55-96f7-c87a6d958190",
    "lat": 30.043595027002205,
    "lng": 31.20874978601933,
    "name": "بسم الله ",
    "placeId": "scattersrestorehurray",
    "status": "census_collected",
    "streetName": "وزارة الزراعه",
    "type": "kiosk",
    "w3w": "scatters.restore.hurray"
  },
  "severeestatepath": {
    "address": "نادي امبابه الرياضي, المنيره",
    "city": "giza",
    "districtName": "المنيره",
    "image": "https://firebasestorage.googleapis.com/v0/b/shoof-e2613.appspot.com/o/MissionPhotos%2Fshops_census%2Fshops_census-VhuS8TSZxHRNSwUnv0w40IpZXP83-1626806165834%2Fstep1?alt=media&token=28cc8026-7b39-419f-97d3-db80c15186d8",
    "lat": 30.07986887418619,
    "lng": 31.214720383286476,
    "name": "الارزاق بالله",
    "placeId": "severeestatepath",
    "status": "census_collected",
    "streetName": "نادي امبابه الرياضي",
    "type": "kiosk",
    "unavailableMissions": [
      "karate01"
    ],
    "w3w": "severe.estate.path"
  },
  "sidelinedrockertangling - 1696833676093 - mkh83uu6FedueHcj8UbNWyQVITn1": {
    "address": "المحكمه, العياط",
    "aislesCount": "1",
    "cashierCount": "1",
    "city": "giza",
    "crowdId": "mkh83uu6FedueHcj8UbNWyQVITn1",
    "districtName": "العياط",
    "employeeCount": 2,
    "image": "https://firebasestorage.googleapis.com/v0/b/shoof-e2613.appspot.com/o/MissionPhotos%2Fshops_census%2Fshops_census-mkh83uu6FedueHcj8UbNWyQVITn1-1696837156071%2Fstep3-1696837185064?alt=media&token=79607302-1469-4f35-948a-ba7808fa2200",
    "lat": 29.62055745823781,
    "lng": 31.25483617186546,
    "name": "ابو حبل",
    "placeId": "sidelinedrockertangling - 1696833676093 - mkh83uu6FedueHcj8UbNWyQVITn1",
    "status": "census_collected",
    "streetName": "المحكمه",
    "type": "kiosk",
    "w3w": "sidelined.rocker.tangling"
  },
  "similarnewspaperrainbow - 1671470446061 - fJh4cMH7HoMArvy1M5WprPScY6r2": {
    "address": "شاره موقف المنيب, بجوار موقف الجيزة ومترو المنيب",
    "aislesCount": "0",
    "cashierCount": "1",
    "city": "giza",
    "crowdId": "fJh4cMH7HoMArvy1M5WprPScY6r2",
    "districtName": "بجوار موقف الجيزة ومترو المنيب",
    "employeeCount": "1",
    "image": "https://firebasestorage.googleapis.com/v0/b/shoof-e2613.appspot.com/o/MissionPhotos%2Fshops_census%2Fshops_census-fJh4cMH7HoMArvy1M5WprPScY6r2-1671470117017%2Fstep3-1671470176386?alt=media&token=f6d4ca87-5cad-42d6-b6f6-3b78e900fb90",
    "lat": 29.98342718523788,
    "lng": 31.21218033134937,
    "name": "كشك ابو دومة",
    "placeId": "similarnewspaperrainbow - 1671470446061 - fJh4cMH7HoMArvy1M5WprPScY6r2",
    "status": "census_collected",
    "streetName": "شاره موقف المنيب",
    "type": "kiosk",
    "w3w": "similar.newspaper.rainbow"
  },
  "sleepingmonopolypoorly": {
    "address": "الشهيد علي الجمال, الجزيره _امام مسجد ناصر",
    "city": "giza",
    "districtName": "الجزيره _امام مسجد ناصر",
    "image": "https://firebasestorage.googleapis.com/v0/b/shoof-e2613.appspot.com/o/MissionPhotos%2Fshops_census%2Fshops_census-VhuS8TSZxHRNSwUnv0w40IpZXP83-1626805227120%2Fstep1?alt=media&token=122c3d37-753c-4d30-96f9-97fc4505a32d",
    "lat": 30.074872528160636,
    "lng": 31.21439952403307,
    "name": "كهربا",
    "placeId": "sleepingmonopolypoorly",
    "status": "census_collected",
    "streetName": "الشهيد علي الجمال",
    "type": "kiosk",
    "unavailableMissions": [
      "karate01",
      "chipsyfh01",
      "coca-price-monitor-01"
    ],
    "w3w": "sleeping.monopoly.poorly"
  },
  "slungslugscoins - 1682947121871 - PvlXzYB7EPYVwHBlrMkPy34lRAD3": {
    "address": "المساكن الشعبيه الجيزه, العمرانيه الشرقيه",
    "aislesCount": "0",
    "cashierCount": "1",
    "city": "giza",
    "crowdId": "PvlXzYB7EPYVwHBlrMkPy34lRAD3",
    "districtName": "العمرانيه الشرقيه",
    "employeeCount": 2,
    "image": "https://firebasestorage.googleapis.com/v0/b/shoof-e2613.appspot.com/o/MissionPhotos%2Fshops_census%2Fshops_census-PvlXzYB7EPYVwHBlrMkPy34lRAD3-1682944957943%2Fstep3-1682945062724?alt=media&token=dc148562-feda-4e72-998f-aeff5e54a0c3",
    "lat": 30.001874100971385,
    "lng": 31.2084849178791,
    "name": "ولاد سلطان",
    "placeId": "slungslugscoins - 1682947121871 - PvlXzYB7EPYVwHBlrMkPy34lRAD3",
    "status": "census_collected",
    "streetName": "المساكن الشعبيه الجيزه",
    "type": "kiosk",
    "w3w": "slung.slugs.coins"
  },
  "smirkingcosmicreap": {
    "address": "ترعة بشتيل, امبابة",
    "aislesCount": "1",
    "cashierCount": "1",
    "city": "giza",
    "crowdId": "j3sXSlN5wvdvdBLkbLIaFMYBO5B2",
    "districtName": "امبابة",
    "employeeCount": "1",
    "image": "https://firebasestorage.googleapis.com/v0/b/shoof-e2613.appspot.com/o/MissionPhotos%2Fshops_census%2Fshops_census-j3sXSlN5wvdvdBLkbLIaFMYBO5B2-1645643928049%2Fstep3-1645643977790?alt=media&token=d10c287f-55e9-426d-840f-49fbced93620",
    "lat": 30.08278370383095,
    "lng": 31.19366403669119,
    "name": "ابن العمدة",
    "placeId": "smirkingcosmicreap",
    "status": "census_collected",
    "streetName": "ترعة بشتيل",
    "type": "kiosk",
    "w3w": "smirking.cosmic.reap"
  },
  "snowballsfusemotive - 1696322645263 - TKCMNKLEASMNteA0SKUYDMzj3td2": {
    "address": "الطرابيشي, الدراسه ",
    "aislesCount": "1",
    "cashierCount": "1",
    "city": "giza",
    "crowdId": "TKCMNKLEASMNteA0SKUYDMzj3td2",
    "districtName": "الدراسه ",
    "employeeCount": "1",
    "image": "https://firebasestorage.googleapis.com/v0/b/shoof-e2613.appspot.com/o/MissionPhotos%2Fshops_census%2Fshops_census-TKCMNKLEASMNteA0SKUYDMzj3td2-1696321824651%2Fstep3-1696322156254?alt=media&token=710934b6-73ad-48a5-a658-e32a061109fe",
    "lat": 30.059431322153042,
    "lng": 31.27032291144133,
    "name": "بقاله محمد ",
    "placeId": "snowballsfusemotive - 1696322645263 - TKCMNKLEASMNteA0SKUYDMzj3td2",
    "status": "census_collected",
    "streetName": "الطرابيشي",
    "type": "kiosk",
    "w3w": "snowballs.fuse.motive"
  },
  "sodabaguettepresides": {
    "address": "وزارة الزراعه, الدقى",
    "aislesCount": "0",
    "cashierCount": "1",
    "city": "giza",
    "crowdId": "lV4If2tunWRyuvYGTJdHGgQ4pNN2",
    "districtName": "الدقى",
    "employeeCount": "1",
    "image": "https://firebasestorage.googleapis.com/v0/b/shoof-e2613.appspot.com/o/MissionPhotos%2Fshops_census%2Fshops_census-lV4If2tunWRyuvYGTJdHGgQ4pNN2-1645100244539%2Fstep3-1645100300619?alt=media&token=612d8be5-fad5-41ad-89fd-4ec377cb3b96",
    "lat": 30.043855072747366,
    "lng": 31.209366694092754,
    "name": "الخديوى",
    "placeId": "sodabaguettepresides",
    "status": "census_collected",
    "streetName": "وزارة الزراعه",
    "type": "kiosk",
    "unavailableMissions": [
      "coca-price-monitor-kiosks",
      "coca-price-monitor-kiosks"
    ],
    "w3w": "soda.baguette.presides"
  },
  "solicitorexploringshape": {
    "address": "الرشيد, عمارات البترول ",
    "city": "giza",
    "districtName": "عمارات البترول ",
    "image": "https://firebasestorage.googleapis.com/v0/b/shoof-e2613.appspot.com/o/MissionPhotos%2Fshops_census%2Fshops_census-VhuS8TSZxHRNSwUnv0w40IpZXP83-1626546321672%2Fstep1?alt=media&token=5c8f7ff8-e382-415c-ab05-d681b05321a1",
    "lat": 30.068428055843622,
    "lng": 31.205076165497303,
    "name": "فهد ",
    "placeId": "solicitorexploringshape",
    "status": "census_collected",
    "streetName": "الرشيد",
    "type": "kiosk",
    "unavailableMissions": [
      "chipsyfh01"
    ],
    "w3w": "solicitor.exploring.shape"
  },
  "solutionsongbirdsvast - 1683247730584 - vsVQG6MkRzQoqSlSMlHQvkQD7sB3": {
    "address": "ابو الفدا , الزمالك",
    "aislesCount": "0",
    "cashierCount": "1",
    "city": "giza",
    "crowdId": "vsVQG6MkRzQoqSlSMlHQvkQD7sB3",
    "districtName": "الزمالك",
    "employeeCount": "1",
    "image": "https://firebasestorage.googleapis.com/v0/b/shoof-e2613.appspot.com/o/MissionPhotos%2Fshops_census%2Fshops_census-vsVQG6MkRzQoqSlSMlHQvkQD7sB3-1683216404918%2Fstep3-1683216444848?alt=media&token=a4bf25bc-0c56-457e-9116-68ab5c305153",
    "lat": 30.066922128379073,
    "lng": 31.216354519128803,
    "name": "الصحافة",
    "placeId": "solutionsongbirdsvast - 1683247730584 - vsVQG6MkRzQoqSlSMlHQvkQD7sB3",
    "status": "census_collected",
    "streetName": "ابو الفدا ",
    "type": "kiosk",
    "w3w": "solution.songbirds.vast"
  },
  "spearingtraintribes": {
    "address": "مشيل باخوم, الدقى",
    "aislesCount": "0",
    "cashierCount": "1",
    "city": "giza",
    "crowdId": "lV4If2tunWRyuvYGTJdHGgQ4pNN2",
    "districtName": "الدقى",
    "employeeCount": 2,
    "image": "https://firebasestorage.googleapis.com/v0/b/shoof-e2613.appspot.com/o/MissionPhotos%2Fshops_census%2Fshops_census-lV4If2tunWRyuvYGTJdHGgQ4pNN2-1645098640510%2Fstep3-1645098705176?alt=media&token=1d6e08d9-3536-4874-95a0-69aea36f93f2",
    "lat": 30.041523343549677,
    "lng": 31.205840595066547,
    "name": "عبدالرحمن ومريم",
    "placeId": "spearingtraintribes",
    "status": "census_collected",
    "streetName": "مشيل باخوم",
    "type": "kiosk",
    "unavailableMissions": [
      "coca-price-monitor-kiosks"
    ],
    "w3w": "spearing.train.tribes"
  },
  "staininghuddlestove": {
    "address": "نادي امبابه الرياضي, المنيره ",
    "city": "giza",
    "districtName": "المنيره ",
    "image": "https://firebasestorage.googleapis.com/v0/b/shoof-e2613.appspot.com/o/MissionPhotos%2Fshops_census%2Fshops_census-VhuS8TSZxHRNSwUnv0w40IpZXP83-1626809111119%2Fstep1?alt=media&token=4c11db36-039e-4626-a90d-ed612ecc61cd",
    "lat": 30.085060501154246,
    "lng": 31.21636189520359,
    "name": "ابو دهب سفاري",
    "placeId": "staininghuddlestove",
    "status": "census_collected",
    "streetName": "نادي امبابه الرياضي",
    "type": "kiosk",
    "unavailableMissions": [
      "karate01",
      "coca-price-monitor-01"
    ],
    "w3w": "staining.huddle.stove"
  },
  "steadilymarchcompliant - 1695730297313 - Po4ODIwqB2ZpCH2bq7iM5TKPJKw2": {
    "address": "صقر قريش, العمرانية ",
    "aislesCount": "0",
    "cashierCount": "1",
    "city": "giza",
    "crowdId": "Po4ODIwqB2ZpCH2bq7iM5TKPJKw2",
    "districtName": "العمرانية ",
    "employeeCount": 2,
    "image": "https://firebasestorage.googleapis.com/v0/b/shoof-e2613.appspot.com/o/MissionPhotos%2Fshops_census%2Fshops_census-Po4ODIwqB2ZpCH2bq7iM5TKPJKw2-1695726512435%2Fstep3-1695726609059?alt=media&token=40f977fd-264e-4405-a702-1f264914ac8f",
    "lat": 29.994628388676855,
    "lng": 31.189791932702065,
    "name": "مكتبة المناهرى ",
    "placeId": "steadilymarchcompliant - 1695730297313 - Po4ODIwqB2ZpCH2bq7iM5TKPJKw2",
    "status": "census_collected",
    "streetName": "صقر قريش",
    "type": "kiosk",
    "w3w": "steadily.march.compliant"
  },
  "steepedgardensmessy": {
    "address": "اللبيني , هرم",
    "city": "giza",
    "districtName": "هرم",
    "image": "https://firebasestorage.googleapis.com/v0/b/shoof-e2613.appspot.com/o/MissionPhotos%2Fshops_census%2Fshops_census-jRQTnx4bx6Zbu2OVW4gF4S1gZ592-1626537033518%2Fstep1?alt=media&token=add238b7-abeb-4552-a2fb-289083aa9c3a",
    "lat": 29.9896597,
    "lng": 31.1477529,
    "name": "كشك الحمد",
    "placeId": "steepedgardensmessy",
    "status": "census_collected",
    "streetName": "اللبيني ",
    "type": "kiosk",
    "unavailableMissions": [
      "coca-price-monitor-kiosks"
    ],
    "w3w": "steeped.gardens.messy"
  },
  "stintovergrownscuba": {
    "address": "وزارة الزراعه, الدقى",
    "aislesCount": "0",
    "cashierCount": "1",
    "city": "giza",
    "crowdId": "lV4If2tunWRyuvYGTJdHGgQ4pNN2",
    "districtName": "الدقى",
    "employeeCount": "1",
    "image": "https://firebasestorage.googleapis.com/v0/b/shoof-e2613.appspot.com/o/MissionPhotos%2Fshops_census%2Fshops_census-lV4If2tunWRyuvYGTJdHGgQ4pNN2-1645099861399%2Fstep3-1645099933570?alt=media&token=ca499695-6ed8-4773-8e52-2b91d7a8493c",
    "lat": 30.04374913901617,
    "lng": 31.21031116694212,
    "name": "الحاج محمود",
    "placeId": "stintovergrownscuba",
    "status": "census_collected",
    "streetName": "وزارة الزراعه",
    "type": "kiosk",
    "w3w": "stint.overgrown.scuba"
  },
  "subsetsscoopalready": {
    "address": "سور نادي التوفيقيه للتنس, احمد عرابي",
    "city": "giza",
    "districtName": "احمد عرابي",
    "image": "https://firebasestorage.googleapis.com/v0/b/shoof-e2613.appspot.com/o/MissionPhotos%2Fshops_census%2Fshops_census-VhuS8TSZxHRNSwUnv0w40IpZXP83-1626616003849%2Fstep1?alt=media&token=2b5d7e9a-d4ff-4392-ab4c-07a07ddc3494",
    "lat": 30.065262099704317,
    "lng": 31.2056340649724,
    "name": "الاهلاوي ",
    "placeId": "subsetsscoopalready",
    "status": "census_collected",
    "streetName": "سور نادي التوفيقيه للتنس",
    "type": "kiosk",
    "unavailableMissions": [
      "karate01",
      "chipsyfh01"
    ],
    "w3w": "subsets.scoop.already"
  },
  "swimmerempireswarned": {
    "address": "اللبيني, الهرم",
    "city": "giza",
    "districtName": "الهرم",
    "image": "https://firebasestorage.googleapis.com/v0/b/shoof-e2613.appspot.com/o/MissionPhotos%2Fshops_census%2Fshops_census-jRQTnx4bx6Zbu2OVW4gF4S1gZ592-1626526111929%2Fstep1?alt=media&token=b8816ab0-53a5-45eb-b6cd-d011ca13de37",
    "lat": 29.9872402,
    "lng": 31.14954370000001,
    "name": "كشك دونجل",
    "placeId": "swimmerempireswarned",
    "status": "census_collected",
    "streetName": "اللبيني",
    "type": "kiosk",
    "w3w": "swimmer.empires.warned"
  },
  "tentmegaanyone": {
    "address": "٢٦ يوليو, العجوزة ",
    "city": "giza",
    "districtName": "العجوزة ",
    "image": "https://firebasestorage.googleapis.com/v0/b/shoof-e2613.appspot.com/o/MissionPhotos%2Fshops_census%2Fshops_census-VhuS8TSZxHRNSwUnv0w40IpZXP83-1626706614000%2Fstep1?alt=media&token=0213e6bc-c1ab-4cd4-9336-1bd2de0d5a91",
    "lat": 30.06092604659613,
    "lng": 31.210402697324753,
    "name": "كشك سفنكس",
    "placeId": "tentmegaanyone",
    "status": "census_collected",
    "streetName": "٢٦ يوليو",
    "type": "kiosk",
    "w3w": "tent.mega.anyone"
  },
  "testersheadingstorch - 1697370710729 - mkh83uu6FedueHcj8UbNWyQVITn1": {
    "address": "ابو هشيمه, العياط",
    "aislesCount": "1",
    "cashierCount": "1",
    "city": "giza",
    "crowdId": "mkh83uu6FedueHcj8UbNWyQVITn1",
    "districtName": "العياط",
    "employeeCount": 2,
    "image": "https://firebasestorage.googleapis.com/v0/b/shoof-e2613.appspot.com/o/MissionPhotos%2Fshops_census%2Fshops_census-mkh83uu6FedueHcj8UbNWyQVITn1-1697374070754%2Fstep3-1697374203692?alt=media&token=b87c9f22-9988-418e-b770-3e110d60b563",
    "lat": 29.622059347921095,
    "lng": 31.255648881196976,
    "name": "قنديل",
    "placeId": "testersheadingstorch - 1697370710729 - mkh83uu6FedueHcj8UbNWyQVITn1",
    "status": "census_collected",
    "streetName": "ابو هشيمه",
    "type": "kiosk",
    "unavailableMissions": [
      "coca-price-monitor-01"
    ],
    "w3w": "testers.headings.torch"
  },
  "testinginterestsflood": {
    "address": "الحريه, عزيز عزت ",
    "city": "giza",
    "districtName": "عزيز عزت ",
    "image": "https://firebasestorage.googleapis.com/v0/b/shoof-e2613.appspot.com/o/MissionPhotos%2Fshops_census%2Fshops_census-VhuS8TSZxHRNSwUnv0w40IpZXP83-1626397553718%2Fstep1?alt=media&token=4501db23-7921-4f43-a9cf-70ef5f91185f",
    "lat": 30.07187941587171,
    "lng": 31.21184203773737,
    "name": "كشك سيد",
    "placeId": "testinginterestsflood",
    "status": "census_collected",
    "streetName": "الحريه",
    "type": "kiosk",
    "unavailableMissions": [
      "karate01",
      "chipsyfh01"
    ],
    "w3w": "testing.interests.flood"
  },
  "thickenedofficialgrading": {
    "address": "شارع مصدق, الدقى",
    "aislesCount": "0",
    "cashierCount": "1",
    "city": "giza",
    "crowdId": "lV4If2tunWRyuvYGTJdHGgQ4pNN2",
    "districtName": "الدقى",
    "employeeCount": "1",
    "image": "https://firebasestorage.googleapis.com/v0/b/shoof-e2613.appspot.com/o/MissionPhotos%2Fshops_census%2Fshops_census-lV4If2tunWRyuvYGTJdHGgQ4pNN2-1645350321598%2Fstep3-1645350386678?alt=media&token=6492859e-13f1-471b-9df7-6a3908cab635",
    "lat": 30.038595979237094,
    "lng": 31.201373375952247,
    "name": "الله اكبر كشك محمود",
    "placeId": "thickenedofficialgrading",
    "status": "census_collected",
    "streetName": "شارع مصدق",
    "type": "kiosk",
    "unavailableMissions": [
      "coca-price-monitor-kiosks"
    ],
    "w3w": "thickened.official.grading"
  },
  "threadedbackpackprocured": {
    "address": "السلام , الكيت كات ",
    "city": "giza",
    "districtName": "الكيت كات ",
    "image": "https://firebasestorage.googleapis.com/v0/b/shoof-e2613.appspot.com/o/MissionPhotos%2Fshops_census%2Fshops_census-VhuS8TSZxHRNSwUnv0w40IpZXP83-1626611884240%2Fstep1?alt=media&token=9968bf7a-4d80-4d23-9106-4a2074c0ddc9",
    "lat": 30.069468844343426,
    "lng": 31.211635172367096,
    "name": "كشك السلام(امام علاف تبارك) ",
    "placeId": "threadedbackpackprocured",
    "status": "census_collected",
    "streetName": "السلام ",
    "type": "kiosk",
    "unavailableMissions": [
      "karate01",
      "chipsyfh01"
    ],
    "w3w": "threaded.backpack.procured"
  },
  "trapdoorrecorderiterative": {
    "address": "شارع مشيل باخوم, الدقى",
    "aislesCount": "0",
    "cashierCount": "1",
    "city": "giza",
    "crowdId": "lV4If2tunWRyuvYGTJdHGgQ4pNN2",
    "districtName": "الدقى",
    "employeeCount": "1",
    "image": "https://firebasestorage.googleapis.com/v0/b/shoof-e2613.appspot.com/o/MissionPhotos%2Fshops_census%2Fshops_census-lV4If2tunWRyuvYGTJdHGgQ4pNN2-1645101042563%2Fstep3-1645101107986?alt=media&token=5165d3f8-ccf7-4362-a2e4-67e76af75751",
    "lat": 30.04243903413902,
    "lng": 31.204680204391476,
    "name": "كرم",
    "placeId": "trapdoorrecorderiterative",
    "status": "census_collected",
    "streetName": "شارع مشيل باخوم",
    "type": "kiosk",
    "w3w": "trapdoor.recorder.iterative"
  },
  "trebleovercomesgrocers": {
    "address": "ترعه السواحل , المحكمه ",
    "city": "giza",
    "districtName": "المحكمه ",
    "image": "https://firebasestorage.googleapis.com/v0/b/shoof-e2613.appspot.com/o/MissionPhotos%2Fshops_census%2Fshops_census-VhuS8TSZxHRNSwUnv0w40IpZXP83-1626622280058%2Fstep1?alt=media&token=f0f3a567-1d6f-4526-a48b-29efcb4de8eb",
    "lat": 30.071424174013128,
    "lng": 31.2088755145669,
    "name": "مسك",
    "placeId": "trebleovercomesgrocers",
    "status": "census_collected",
    "streetName": "ترعه السواحل ",
    "type": "kiosk",
    "unavailableMissions": [
      "karate01",
      "chipsyfh01"
    ],
    "w3w": "treble.overcomes.grocers"
  },
  "tricklescoopedupstarts": {
    "address": "ترعة السواحل, امبابه",
    "city": "giza",
    "districtName": "امبابه",
    "image": "https://firebasestorage.googleapis.com/v0/b/shoof-e2613.appspot.com/o/MissionPhotos%2Fshops_census%2Fshops_census-QeJQ466RAhfo0lGsJM1cA0fASkz1-1626103686429%2Fstep1?alt=media&token=7b214704-6b7b-48fd-a92e-b16e2701d521",
    "lat": 30.07239297491897,
    "lng": 31.209475994110107,
    "name": "نجمة السواحل",
    "placeId": "tricklescoopedupstarts",
    "status": "census_collected",
    "streetName": "ترعة السواحل",
    "type": "kiosk",
    "unavailableMissions": [
      "karate01",
      "chipsyfh01"
    ],
    "w3w": "trickle.scooped.upstarts"
  },
  "tulipfirewallexists": {
    "address": "وزارة الزراعه, الدقى",
    "aislesCount": "0",
    "cashierCount": "1",
    "city": "giza",
    "crowdId": "lV4If2tunWRyuvYGTJdHGgQ4pNN2",
    "districtName": "الدقى",
    "employeeCount": "1",
    "image": "https://firebasestorage.googleapis.com/v0/b/shoof-e2613.appspot.com/o/MissionPhotos%2Fshops_census%2Fshops_census-lV4If2tunWRyuvYGTJdHGgQ4pNN2-1645099705617%2Fstep3-1645099756658?alt=media&token=cc52376b-2674-4e79-9cdd-7d7fa60a6eca",
    "lat": 30.043751751082148,
    "lng": 31.209870949387554,
    "name": "الصعيدى",
    "placeId": "tulipfirewallexists",
    "status": "census_collected",
    "streetName": "وزارة الزراعه",
    "type": "kiosk",
    "unavailableMissions": [
      "coca-price-monitor-kiosks"
    ],
    "w3w": "tulip.firewall.exists"
  },
  "tutorialfadedratio": {
    "address": "ترعة بشتيل, امبابة",
    "aislesCount": "1",
    "cashierCount": "1",
    "city": "giza",
    "crowdId": "GQfz42ylH2bSMlOXx8QaW7oo3kB3",
    "districtName": "امبابة",
    "employeeCount": "1",
    "image": "https://firebasestorage.googleapis.com/v0/b/shoof-e2613.appspot.com/o/MissionPhotos%2Fshops_census%2Fshops_census-GQfz42ylH2bSMlOXx8QaW7oo3kB3-1645543406469%2Fstep3-1645543449528?alt=media&token=a40793ad-e894-4d33-a59b-0240bdedc8bc",
    "lat": 30.08266417632574,
    "lng": 31.193589940667152,
    "name": "بشتيل",
    "placeId": "tutorialfadedratio",
    "status": "census_collected",
    "streetName": "ترعة بشتيل",
    "type": "kiosk",
    "w3w": "tutorial.faded.ratio"
  },
  "twinkledfulldressy": {
    "address": "السوق, عزيز عزت",
    "city": "giza",
    "districtName": "عزيز عزت",
    "image": "https://firebasestorage.googleapis.com/v0/b/shoof-e2613.appspot.com/o/MissionPhotos%2Fshops_census%2Fshops_census-VhuS8TSZxHRNSwUnv0w40IpZXP83-1626470864938%2Fstep1?alt=media&token=99caf384-1136-4f21-a704-ea5236556f08",
    "lat": 30.073996016381624,
    "lng": 31.21396567672491,
    "name": "كشك امان (قبل مسجد ناصر ع الشمال) ",
    "placeId": "twinkledfulldressy",
    "status": "census_collected",
    "streetName": "السوق",
    "type": "kiosk",
    "unavailableMissions": [
      "karate01",
      "chipsyfh01",
      "coca-price-monitor-01"
    ],
    "w3w": "twinkled.full.dressy"
  },
  "unframedpassivelywasp": {
    "address": "اللبيني , فيصل",
    "city": "giza",
    "districtName": "فيصل",
    "image": "https://firebasestorage.googleapis.com/v0/b/shoof-e2613.appspot.com/o/MissionPhotos%2Fshops_census%2Fshops_census-jRQTnx4bx6Zbu2OVW4gF4S1gZ592-1626539384440%2Fstep1?alt=media&token=50138bda-2024-4fee-b2d1-8790b8d1eb06",
    "lat": 29.99326449564273,
    "lng": 31.145908646285534,
    "name": "ال جاد الله",
    "placeId": "unframedpassivelywasp",
    "status": "census_collected",
    "streetName": "اللبيني ",
    "type": "kiosk",
    "w3w": "unframed.passively.wasp"
  },
  "vibedoorsevolution": {
    "address": "شارع بشتيل, اسفل دائري بشتيل ",
    "aislesCount": "1",
    "cashierCount": "1",
    "city": "giza",
    "crowdId": "j3sXSlN5wvdvdBLkbLIaFMYBO5B2",
    "districtName": "اسفل دائري بشتيل ",
    "employeeCount": 2,
    "image": "https://firebasestorage.googleapis.com/v0/b/shoof-e2613.appspot.com/o/MissionPhotos%2Fshops_census%2Fshops_census-j3sXSlN5wvdvdBLkbLIaFMYBO5B2-1645471330044%2Fstep3-1645471617403?alt=media&token=b147fae5-5bc9-4117-8fbc-dc30e60a7362",
    "lat": 30.08408080006564,
    "lng": 31.19183409959078,
    "name": "الامبراطور",
    "placeId": "vibedoorsevolution",
    "status": "census_collected",
    "streetName": "شارع بشتيل",
    "type": "kiosk",
    "unavailableMissions": [
      "coca-price-monitor-kiosks"
    ],
    "w3w": "vibe.doors.evolution"
  },
  "windsminnowsbaldy - 1696360811571 - SUzfm9ooaUQUF4UmLPEfKI9CFgL2": {
    "address": "شارع شكرى القوتلى , العياط ",
    "aislesCount": "1",
    "cashierCount": "1",
    "city": "giza",
    "crowdId": "SUzfm9ooaUQUF4UmLPEfKI9CFgL2",
    "districtName": "العياط ",
    "employeeCount": "1",
    "image": "https://firebasestorage.googleapis.com/v0/b/shoof-e2613.appspot.com/o/MissionPhotos%2Fshops_census%2Fshops_census-SUzfm9ooaUQUF4UmLPEfKI9CFgL2-1696362042147%2Fstep3-1696362095781?alt=media&token=ce7890f1-faf9-486b-a369-257710b0b609",
    "lat": 29.627076657163364,
    "lng": 31.260070167481903,
    "name": "ملوكه ",
    "placeId": "windsminnowsbaldy - 1696360811571 - SUzfm9ooaUQUF4UmLPEfKI9CFgL2",
    "status": "census_collected",
    "streetName": "شارع شكرى القوتلى ",
    "type": "kiosk",
    "unavailableMissions": [
      "coca-price-monitor-01"
    ],
    "w3w": "winds.minnows.baldy"
  },
  "winkbombshelltightest": {
    "address": "سلم كوبرى ناهيا, بولاق الدكرور",
    "aislesCount": "0",
    "cashierCount": "1",
    "city": "giza",
    "crowdId": "lV4If2tunWRyuvYGTJdHGgQ4pNN2",
    "districtName": "بولاق الدكرور",
    "employeeCount": "1",
    "image": "https://firebasestorage.googleapis.com/v0/b/shoof-e2613.appspot.com/o/MissionPhotos%2Fshops_census%2Fshops_census-lV4If2tunWRyuvYGTJdHGgQ4pNN2-1645353894896%2Fstep3-1645353955178?alt=media&token=aef7b922-1629-4cd5-a875-2308f67e287f",
    "lat": 30.04242394200137,
    "lng": 31.193673424422737,
    "name": "البرنس",
    "placeId": "winkbombshelltightest",
    "status": "census_collected",
    "streetName": "سلم كوبرى ناهيا",
    "type": "kiosk",
    "w3w": "wink.bombshell.tightest"
  },
  "wiserwingsforgives - 1696350094490 - emk8N1sXapNil2mjHVOylF0D6c12": {
    "address": "طريق بني سويف الجيزه, البدرشين ",
    "aislesCount": "1",
    "cashierCount": "1",
    "city": "giza",
    "crowdId": "emk8N1sXapNil2mjHVOylF0D6c12",
    "districtName": "البدرشين ",
    "employeeCount": "1",
    "image": "https://firebasestorage.googleapis.com/v0/b/shoof-e2613.appspot.com/o/MissionPhotos%2Fshops_census%2Fshops_census-emk8N1sXapNil2mjHVOylF0D6c12-1696349509609%2Fstep3-1696349545549?alt=media&token=b909d2e3-9281-4883-87af-f30607476fed",
    "lat": 29.848828480468505,
    "lng": 31.282752938568592,
    "name": "هنا الخير ",
    "placeId": "wiserwingsforgives - 1696350094490 - emk8N1sXapNil2mjHVOylF0D6c12",
    "status": "census_collected",
    "streetName": "طريق بني سويف الجيزه",
    "type": "kiosk",
    "w3w": "wiser.wings.forgives"
  }
}